Volcano Number,Volcano Name,Country,Primary Volcano Type,Activity Evidence,Last Known Eruption,Region,Subregion,Latitude,Longitude,Elevation,Dominant Rock Type,Tectonic Setting,HoloPleisto
210010,West Eifel Volcanic Field,Germany,Maar(s),Eruption Dated,8300 BCE,Mediterranean and Western Asia,Western Europe,50.17,6.85,600,Foidite,Rift zone / Continental crust (>25 km),Holocene
210020,Chaine des Puys,France,Lava dome(s),Eruption Dated,4040 BCE,Mediterranean and Western Asia,Western Europe,45.775,2.97,1464,Basalt / Picro-Basalt,Rift zone / Continental crust (>25 km),Holocene
210030,Olot Volcanic Field,Spain,Pyroclastic cone(s),Evidence Credible,Unknown,Mediterranean and Western Asia,Western Europe,42.17,2.53,893,Trachybasalt / Tephrite Basanite,Intraplate / Continental crust (>25 km),Holocene
210040,Calatrava Volcanic Field,Spain,Pyroclastic cone(s),Eruption Dated,3600 BCE,Mediterranean and Western Asia,Western Europe,38.87,-4.02,1117,Basalt / Picro-Basalt,Intraplate / Continental crust (>25 km),Holocene
211003,Vulsini,Italy,Caldera,Eruption Observed,104 BCE,Mediterranean and Western Asia,Italy,42.6,11.93,800,Trachyte / Trachydacite,Subduction zone / Continental crust (>25 km),Holocene
211004,Colli Albani,Italy,Caldera,Evidence Uncertain,Unknown,Mediterranean and Western Asia,Italy,41.73,12.7,949,Foidite,Subduction zone / Continental crust (>25 km),Holocene
211010,Campi Flegrei,Italy,Caldera,Eruption Observed,1538 CE,Mediterranean and Western Asia,Italy,40.827,14.139,458,Trachyte / Trachydacite,Subduction zone / Continental crust (>25 km),Holocene
211020,Vesuvius,Italy,Stratovolcano,Eruption Observed,1944 CE,Mediterranean and Western Asia,Italy,40.821,14.426,1281,Phono-tephrite /  Tephri-phonolite,Subduction zone / Continental crust (>25 km),Holocene
211030,Ischia,Italy,Complex,Eruption Observed,1302 CE,Mediterranean and Western Asia,Italy,40.73,13.897,789,Trachyte / Trachydacite,Subduction zone / Continental crust (>25 km),Holocene
211031,Palinuro,Italy,Submarine,Eruption Dated,8040 BCE,Mediterranean and Western Asia,Italy,39.48,14.83,-70,Phonolite,Subduction zone / Continental crust (>25 km),Holocene
211040,Stromboli,Italy,Stratovolcano,Eruption Observed,2020 CE,Mediterranean and Western Asia,Italy,38.789,15.213,924,Trachyandesite / Basaltic Trachyandesite,Subduction zone / Continental crust (>25 km),Holocene
211041,Panarea,Italy,Stratovolcano,Evidence Uncertain,Unknown,Mediterranean and Western Asia,Italy,38.638,15.064,399,Andesite / Basaltic Andesite,Subduction zone / Continental crust (>25 km),Holocene
211042,Lipari,Italy,Stratovolcano(es),Eruption Dated,1230 CE,Mediterranean and Western Asia,Italy,38.49,14.933,590,Rhyolite,Subduction zone / Continental crust (>25 km),Holocene
211050,Vulcano,Italy,Stratovolcano(es),Eruption Observed,1890 CE,Mediterranean and Western Asia,Italy,38.404,14.962,500,Trachybasalt / Tephrite Basanite,Subduction zone / Continental crust (>25 km),Holocene
211060,Etna,Italy,Stratovolcano(es),Eruption Observed,2020 CE,Mediterranean and Western Asia,Italy,37.748,14.999,3295,Trachybasalt / Tephrite Basanite,Subduction zone / Continental crust (>25 km),Holocene
211070,Campi Flegrei del Mar di Sicilia,Italy,Submarine,Eruption Observed,1867 CE,Mediterranean and Western Asia,Italy,37.1,12.7,-8,Trachybasalt / Tephrite Basanite,Rift zone / Continental crust (>25 km),Holocene
211071,Pantelleria,Italy,Shield,Eruption Observed,1891 CE,Mediterranean and Western Asia,Italy,36.77,12.02,836,Rhyolite,Rift zone / Continental crust (>25 km),Holocene
211080,Marsili,Italy,Submarine,Eruption Dated,1050 BCE,Mediterranean and Western Asia,Italy,39.284,14.399,-779,,,Holocene
212020,Methana,Greece,Lava dome(s),Eruption Observed,258 BCE,Mediterranean and Western Asia,Greece,37.615,23.336,760,Andesite / Basaltic Andesite,Subduction zone / Continental crust (>25 km),Holocene
212030,Milos,Greece,Stratovolcano(es),Eruption Dated,140 CE,Mediterranean and Western Asia,Greece,36.699,24.439,751,Rhyolite,Subduction zone / Continental crust (>25 km),Holocene
212040,Santorini,Greece,Shield(s),Eruption Observed,1950 CE,Mediterranean and Western Asia,Greece,36.404,25.396,367,Dacite,Subduction zone / Continental crust (>25 km),Holocene
212050,Nisyros,Greece,Stratovolcano,Eruption Observed,1888 CE,Mediterranean and Western Asia,Greece,36.586,27.16,698,Dacite,Subduction zone / Continental crust (>25 km),Holocene
212051,Yali,Greece,Lava dome(s),Evidence Credible,Unknown,Mediterranean and Western Asia,Greece,36.671,27.14,180,Rhyolite,Subduction zone / Continental crust (>25 km),Holocene
213000,Kula,Turkey,Pyroclastic cone(s),Evidence Credible,Unknown,Mediterranean and Western Asia,Turkey,38.58,28.52,750,Trachybasalt / Tephrite Basanite,Intraplate / Continental crust (>25 km),Holocene
213001,Karapinar Field,Turkey,Pyroclastic cone(s),Evidence Credible,Unknown,Mediterranean and Western Asia,Turkey,37.667,33.6,1302,Trachyandesite / Basaltic Trachyandesite,Intraplate / Continental crust (>25 km),Holocene
213002,Hasan Dagi,Turkey,Stratovolcano,Evidence Credible,Unknown,Mediterranean and Western Asia,Turkey,38.13,34.17,3253,Dacite,Intraplate / Continental crust (>25 km),Holocene
213003,Gollu Dag,Turkey,Lava dome,Evidence Uncertain,Unknown,Mediterranean and Western Asia,Turkey,38.25,34.57,2143,Rhyolite,Intraplate / Continental crust (>25 km),Holocene
213004,Acigol-Nevsehir,Turkey,Caldera,Eruption Dated,2080 BCE,Mediterranean and Western Asia,Turkey,38.537,34.621,1683,Rhyolite,Intraplate / Continental crust (>25 km),Holocene
213010,Erciyes Dagi,Turkey,Stratovolcano,Eruption Dated,6880 BCE,Mediterranean and Western Asia,Turkey,38.531,35.447,3864,Dacite,Intraplate / Continental crust (>25 km),Holocene
213011,Karaca Dag,Turkey,Shield,Evidence Credible,Unknown,Mediterranean and Western Asia,Turkey,37.67,39.83,1957,Basalt / Picro-Basalt,Intraplate / Continental crust (>25 km),Holocene
213020,Nemrut Dagi,Turkey,Stratovolcano,Eruption Observed,1650 CE,Mediterranean and Western Asia,Turkey,38.654,42.229,2948,Rhyolite,Intraplate / Continental crust (>25 km),Holocene
213030,Tenduruk Dagi,Turkey,Shield,Eruption Observed,1855 CE,Mediterranean and Western Asia,Turkey,39.356,43.874,3514,Basalt / Picro-Basalt,Intraplate / Continental crust (>25 km),Holocene
213040,Ararat,Turkey,Stratovolcano,Eruption Observed,1840 CE,Mediterranean and Western Asia,Turkey,39.7,44.3,5165,Andesite / Basaltic Andesite,Intraplate / Continental crust (>25 km),Holocene
214010,Elbrus,Russia,Stratovolcano,Eruption Dated,50 CE,Mediterranean and Western Asia,Western Asia,43.351,42.442,5642,Dacite,Intraplate / Continental crust (>25 km),Holocene
214020,Kazbek,Georgia,Stratovolcano,Eruption Dated,750 BCE,Mediterranean and Western Asia,Western Asia,42.7,44.5,5050,Andesite / Basaltic Andesite,Intraplate / Continental crust (>25 km),Holocene
214050,Samsari Volcanic Center,Georgia,Lava cone(s),Evidence Uncertain,Unknown,Mediterranean and Western Asia,Western Asia,41.542,43.7,3290,Andesite / Basaltic Andesite,Intraplate / Continental crust (>25 km),Holocene
214060,Aragats,Armenia,Stratovolcano,Evidence Credible,Unknown,Mediterranean and Western Asia,Western Asia,40.53,44.2,4095,Andesite / Basaltic Andesite,Intraplate / Continental crust (>25 km),Holocene
214070,Ghegham Volcanic Ridge,Armenia,Volcanic field,Eruption Dated,1900 BCE,Mediterranean and Western Asia,Western Asia,40.283,45,3597,Andesite / Basaltic Andesite,Intraplate / Continental crust (>25 km),Holocene
214080,Vaiyots-Sar,Armenia,Pyroclastic cone(s),Eruption Dated,2000 BCE,Mediterranean and Western Asia,Western Asia,39.797,45.497,2575,Andesite / Basaltic Andesite,Intraplate / Continental crust (>25 km),Holocene
214090,Porak,Armenia-Azerbaijan,Stratovolcano,Eruption Dated,778 BCE,Mediterranean and Western Asia,Western Asia,40.028,45.74,3029,Andesite / Basaltic Andesite,Intraplate / Continental crust (>25 km),Holocene
214100,Tskhouk-Karckar,Armenia-Azerbaijan,Pyroclastic cone(s),Eruption Dated,3000 BCE,Mediterranean and Western Asia,Western Asia,39.742,45.992,3139,Andesite / Basaltic Andesite,Intraplate / Continental crust (>25 km),Holocene
221010,"Tair, Jebel at",Yemen,Stratovolcano,Eruption Observed,2008 CE,Africa and Red Sea,Africa (northeastern) and Red Sea,15.55,41.83,244,Trachybasalt / Tephrite Basanite,Rift zone / Oceanic crust (< 15 km),Holocene
221020,Zubair Group,Yemen,Shield,Eruption Observed,2013 CE,Africa and Red Sea,Africa (northeastern) and Red Sea,15.05,42.18,191,Basalt / Picro-Basalt,Rift zone / Oceanic crust (< 15 km),Holocene
221021,Zukur,Yemen,Shield,Evidence Credible,Unknown,Africa and Red Sea,Africa (northeastern) and Red Sea,14.02,42.75,624,Basalt / Picro-Basalt,Rift zone / Oceanic crust (< 15 km),Holocene
221022,Hanish,Yemen,Shield,Evidence Credible,Unknown,Africa and Red Sea,Africa (northeastern) and Red Sea,13.72,42.73,422,Basalt / Picro-Basalt,Rift zone / Oceanic crust (< 15 km),Holocene
221040,Alid,Eritrea,Stratovolcano,Evidence Credible,Unknown,Africa and Red Sea,Africa (northeastern) and Red Sea,14.88,39.92,904,Rhyolite,Rift zone / Intermediate crust (15-25 km),Holocene
221041,Dallol,Ethiopia,Explosion crater(s),Eruption Observed,2011 CE,Africa and Red Sea,Africa (northeastern) and Red Sea,14.242,40.3,-48,No Data (checked),Rift zone / Intermediate crust (15-25 km),Holocene
221050,Gada Ale,Ethiopia,Stratovolcano,Evidence Credible,Unknown,Africa and Red Sea,Africa (northeastern) and Red Sea,13.975,40.408,287,Basalt / Picro-Basalt,Rift zone / Intermediate crust (15-25 km),Holocene
221060,Alu-Dalafilla,Ethiopia,Fissure vent(s),Eruption Observed,2008 CE,Africa and Red Sea,Africa (northeastern) and Red Sea,13.793,40.553,578,Basalt / Picro-Basalt,Rift zone / Intermediate crust (15-25 km),Holocene
221071,Bora Ale,Ethiopia,Stratovolcano,Evidence Credible,Unknown,Africa and Red Sea,Africa (northeastern) and Red Sea,13.725,40.6,668,Basalt / Picro-Basalt,Rift zone / Intermediate crust (15-25 km),Holocene
221080,Erta Ale,Ethiopia,Shield,Eruption Observed,2020 CE,Africa and Red Sea,Africa (northeastern) and Red Sea,13.6,40.67,613,Basalt / Picro-Basalt,Rift zone / Intermediate crust (15-25 km),Holocene
221090,Ale Bagu,Ethiopia,Stratovolcano,Evidence Credible,Unknown,Africa and Red Sea,Africa (northeastern) and Red Sea,13.512,40.631,988,Basalt / Picro-Basalt,Rift zone / Intermediate crust (15-25 km),Holocene
221091,Hayli Gubbi,Ethiopia,Shield,Evidence Credible,Unknown,Africa and Red Sea,Africa (northeastern) and Red Sea,13.51,40.722,493,Basalt / Picro-Basalt,Rift zone / Intermediate crust (15-25 km),Holocene
221100,Dubbi,Eritrea,Stratovolcano,Eruption Observed,1861 CE,Africa and Red Sea,Africa (northeastern) and Red Sea,13.579,41.809,1625,Basalt / Picro-Basalt,Rift zone / Intermediate crust (15-25 km),Holocene
221101,Nabro,Eritrea,Stratovolcano,Eruption Observed,2012 CE,Africa and Red Sea,Africa (northeastern) and Red Sea,13.37,41.7,2218,Trachyte / Trachydacite,Rift zone / Intermediate crust (15-25 km),Holocene
221102,Mallahle,Ethiopia-Eritrea,Stratovolcano,Evidence Uncertain,Unknown,Africa and Red Sea,Africa (northeastern) and Red Sea,13.27,41.65,1875,Trachyte / Trachydacite,Rift zone / Intermediate crust (15-25 km),Holocene
221103,Sork Ale,Ethiopia-Eritrea,Stratovolcano,Evidence Uncertain,Unknown,Africa and Red Sea,Africa (northeastern) and Red Sea,13.18,41.725,1611,Basalt / Picro-Basalt,Rift zone / Intermediate crust (15-25 km),Holocene
221104,Asavyo,Ethiopia,Shield,Evidence Credible,Unknown,Africa and Red Sea,Africa (northeastern) and Red Sea,13.098,41.599,1338,Basalt / Picro-Basalt,Rift zone / Intermediate crust (15-25 km),Holocene
221105,Mat Ala,Ethiopia,Shield,Evidence Credible,Unknown,Africa and Red Sea,Africa (northeastern) and Red Sea,13.106,41.161,493,Basalt / Picro-Basalt,Rift zone / Intermediate crust (15-25 km),Holocene
221106,Tat Ali,Ethiopia,Shield,Evidence Credible,Unknown,Africa and Red Sea,Africa (northeastern) and Red Sea,13.284,41.063,655,Basalt / Picro-Basalt,Rift zone / Intermediate crust (15-25 km),Holocene
221107,Borawli,Ethiopia,Stratovolcano,Evidence Credible,Unknown,Africa and Red Sea,Africa (northeastern) and Red Sea,13.304,40.987,784,Basalt / Picro-Basalt,Rift zone / Intermediate crust (15-25 km),Holocene
221110,Afdera,Ethiopia,Stratovolcano,Evidence Uncertain,Unknown,Africa and Red Sea,Africa (northeastern) and Red Sea,13.088,40.853,1250,Rhyolite,Rift zone / Intermediate crust (15-25 km),Holocene
221111,Ma Alalta,Ethiopia,Stratovolcano,Evidence Credible,Unknown,Africa and Red Sea,Africa (northeastern) and Red Sea,13.013,40.185,1745,Rhyolite,Rift zone / Intermediate crust (15-25 km),Holocene
221112,Alayta,Ethiopia,Shield,Eruption Observed,1915 CE,Africa and Red Sea,Africa (northeastern) and Red Sea,12.888,40.573,1496,Basalt / Picro-Basalt,Rift zone / Intermediate crust (15-25 km),Holocene
221113,Dabbahu,Ethiopia,Stratovolcano,Eruption Observed,2005 CE,Africa and Red Sea,Africa (northeastern) and Red Sea,12.595,40.48,1401,Basalt / Picro-Basalt,Rift zone / Intermediate crust (15-25 km),Holocene
221114,Dabbayra,Ethiopia,Shield,Evidence Credible,Unknown,Africa and Red Sea,Africa (northeastern) and Red Sea,12.38,40.07,1302,Basalt / Picro-Basalt,Rift zone / Intermediate crust (15-25 km),Holocene
221115,Manda Hararo,Ethiopia,Shield(s),Eruption Observed,2009 CE,Africa and Red Sea,Africa (northeastern) and Red Sea,12.17,40.82,600,Basalt / Picro-Basalt,Rift zone / Intermediate crust (15-25 km),Holocene
221116,Groppo,Ethiopia,Volcanic field,Evidence Credible,Unknown,Africa and Red Sea,Africa (northeastern) and Red Sea,11.816,40.242,852,,Rift zone / Intermediate crust (15-25 km),Holocene
221120,Kurub,Ethiopia,Shield,Evidence Credible,Unknown,Africa and Red Sea,Africa (northeastern) and Red Sea,11.88,41.208,625,Basalt / Picro-Basalt,Rift zone / Intermediate crust (15-25 km),Holocene
221122,Manda-Inakir,Ethiopia-Djibouti,Fissure vent(s),Eruption Observed,1928 CE,Africa and Red Sea,Africa (northeastern) and Red Sea,12.38,42.2,600,Basalt / Picro-Basalt,Rift zone / Intermediate crust (15-25 km),Holocene
221123,Mousa Alli,Ethiopia-Eritrea-Djibouti,Stratovolcano,Evidence Credible,Unknown,Africa and Red Sea,Africa (northeastern) and Red Sea,12.469,42.404,1993,Rhyolite,Rift zone / Intermediate crust (15-25 km),Holocene
221124,Gufa,Eritrea-Djibouti,Volcanic field,Evidence Credible,Unknown,Africa and Red Sea,Africa (northeastern) and Red Sea,12.55,42.53,600,Basalt / Picro-Basalt,Rift zone / Intermediate crust (15-25 km),Holocene
221125,Assab Volcanic Field,Eritrea,Volcanic field,Evidence Credible,Unknown,Africa and Red Sea,Africa (northeastern) and Red Sea,12.95,42.43,987,Basalt / Picro-Basalt,Rift zone / Intermediate crust (15-25 km),Holocene
221126,Ardoukoba,Djibouti,Fissure vent(s),Eruption Observed,1978 CE,Africa and Red Sea,Africa (northeastern) and Red Sea,11.58,42.47,298,Basalt / Picro-Basalt,Rift zone / Intermediate crust (15-25 km),Holocene
221127,Manda Gargori,Ethiopia,Fissure vent(s),Evidence Credible,Unknown,Africa and Red Sea,Africa (northeastern) and Red Sea,11.75,41.48,700,Basalt / Picro-Basalt,Rift zone / Intermediate crust (15-25 km),Holocene
221141,Dama Ali,Ethiopia,Shield,Eruption Observed,1631 CE,Africa and Red Sea,Africa (northeastern) and Red Sea,11.28,41.63,1068,Basalt / Picro-Basalt,Rift zone / Intermediate crust (15-25 km),Holocene
221150,Gabillema,Ethiopia,Stratovolcano,Evidence Credible,Unknown,Africa and Red Sea,Africa (northeastern) and Red Sea,11.08,41.27,1459,Rhyolite,Rift zone / Intermediate crust (15-25 km),Holocene
221151,Yangudi,Ethiopia,Complex,Evidence Credible,Unknown,Africa and Red Sea,Africa (northeastern) and Red Sea,10.58,41.042,1383,Rhyolite,Rift zone / Intermediate crust (15-25 km),Holocene
221160,Ayelu,Ethiopia,Stratovolcano,Evidence Credible,Unknown,Africa and Red Sea,Africa (northeastern) and Red Sea,10.082,40.702,2145,Rhyolite,Rift zone / Intermediate crust (15-25 km),Holocene
221170,Adwa,Ethiopia,Stratovolcano,Evidence Credible,Unknown,Africa and Red Sea,Africa (northeastern) and Red Sea,10.07,40.84,1733,Rhyolite,Rift zone / Intermediate crust (15-25 km),Holocene
221171,Hertali,Ethiopia,Fissure vent,Evidence Credible,Unknown,Africa and Red Sea,Africa (northeastern) and Red Sea,9.78,40.33,900,Basalt / Picro-Basalt,Rift zone / Intermediate crust (15-25 km),Holocene
221172,Liado Hayk,Ethiopia,Maar(s),Evidence Uncertain,Unknown,Africa and Red Sea,Africa (northeastern) and Red Sea,9.57,40.28,878,No Data (checked),Rift zone / Continental crust (>25 km),Holocene
221180,Dofan,Ethiopia,Shield,Evidence Credible,Unknown,Africa and Red Sea,Africa (northeastern) and Red Sea,9.35,40.13,1151,Rhyolite,Rift zone / Continental crust (>25 km),Holocene
221190,Fentale,Ethiopia,Stratovolcano,Eruption Observed,1820 CE,Africa and Red Sea,Africa (northeastern) and Red Sea,8.975,39.93,2007,Rhyolite,Rift zone / Continental crust (>25 km),Holocene
221191,Beru,Ethiopia,Volcanic field,Evidence Credible,Unknown,Africa and Red Sea,Africa (northeastern) and Red Sea,8.95,39.75,1100,Basalt / Picro-Basalt,Rift zone / Continental crust (>25 km),Holocene
221200,Kone,Ethiopia,Caldera(s),Eruption Observed,1820 CE,Africa and Red Sea,Africa (northeastern) and Red Sea,8.788,39.701,1380,Rhyolite,Rift zone / Continental crust (>25 km),Holocene
221210,Boset-Bericha,Ethiopia,Stratovolcano(es),Evidence Credible,Unknown,Africa and Red Sea,Africa (northeastern) and Red Sea,8.558,39.475,2447,Rhyolite,Rift zone / Continental crust (>25 km),Holocene
221220,Bishoftu Volcanic Field,Ethiopia,Fissure vent(s),Evidence Credible,Unknown,Africa and Red Sea,Africa (northeastern) and Red Sea,8.78,38.98,1850,Basalt / Picro-Basalt,Rift zone / Continental crust (>25 km),Holocene
221222,Sodore,Ethiopia,Pyroclastic cone(s),Evidence Credible,Unknown,Africa and Red Sea,Africa (northeastern) and Red Sea,8.43,39.35,1765,Basalt / Picro-Basalt,Intraplate / Continental crust (>25 km),Holocene
221230,Gedamsa,Ethiopia,Caldera,Evidence Credible,Unknown,Africa and Red Sea,Africa (northeastern) and Red Sea,8.357,39.188,1873,Rhyolite,Rift zone / Continental crust (>25 km),Holocene
221240,Bora-Bericcio,Ethiopia,Pyroclastic cone(s),Evidence Credible,Unknown,Africa and Red Sea,Africa (northeastern) and Red Sea,8.221,39.05,2267,Rhyolite,Rift zone / Continental crust (>25 km),Holocene
221250,Tullu Moje,Ethiopia,Pyroclastic cone,Eruption Observed,1900 CE,Africa and Red Sea,Africa (northeastern) and Red Sea,8.159,39.137,2343,Rhyolite,Rift zone / Continental crust (>25 km),Holocene
221251,Unnamed,Ethiopia,Fissure vent(s),Evidence Credible,Unknown,Africa and Red Sea,Africa (northeastern) and Red Sea,8.013,39.062,1886,Basalt / Picro-Basalt,Intraplate / Continental crust (>25 km),Holocene
221252,East Zway,Ethiopia,Fissure vent(s),Evidence Credible,Unknown,Africa and Red Sea,Africa (northeastern) and Red Sea,7.874,38.902,1889,Basalt / Picro-Basalt,Rift zone / Continental crust (>25 km),Holocene
221260,Butajiri-Silti Field,Ethiopia,Fissure vent(s),Evidence Credible,Unknown,Africa and Red Sea,Africa (northeastern) and Red Sea,8.05,38.35,2281,Basalt / Picro-Basalt,Rift zone / Continental crust (>25 km),Holocene
221270,Alutu,Ethiopia,Stratovolcano,Eruption Dated,50 BCE,Africa and Red Sea,Africa (northeastern) and Red Sea,7.77,38.78,2335,Rhyolite,Rift zone / Continental crust (>25 km),Holocene
221280,O'a Caldera,Ethiopia,Caldera,Evidence Credible,Unknown,Africa and Red Sea,Africa (northeastern) and Red Sea,7.47,38.58,2075,Rhyolite,Rift zone / Continental crust (>25 km),Holocene
221290,Corbetti Caldera,Ethiopia,Caldera,Evidence Credible,Unknown,Africa and Red Sea,Africa (northeastern) and Red Sea,7.193,38.39,2320,Rhyolite,Rift zone / Continental crust (>25 km),Holocene
221291,Bilate River Field,Ethiopia,Maar(s),Unrest / Holocene,Unknown,Africa and Red Sea,Africa (northeastern) and Red Sea,7.07,38.1,1700,No Data (checked),Intraplate / Continental crust (>25 km),Holocene
221292,Tepi,Ethiopia,Shield,Unrest / Holocene,Unknown,Africa and Red Sea,Africa (northeastern) and Red Sea,7.42,35.43,2728,Basalt / Picro-Basalt,Intraplate / Continental crust (>25 km),Holocene
221294,Northern Lake Abaya Volcanic Field,Ethiopia,Volcanic field,Evidence Credible,Unknown,Africa and Red Sea,Africa (northeastern) and Red Sea,6.76,37.97,1594,,Intraplate / Continental crust (>25 km),Holocene
221311,East Chamo Basin,Ethiopia,Pyroclastic cone(s),Evidence Credible,Unknown,Africa and Red Sea,Africa (northeastern) and Red Sea,5.708,37.713,1150,Basalt / Picro-Basalt,Rift zone / Intermediate crust (15-25 km),Holocene
221320,Korath Range,Ethiopia,Tuff cone(s),Evidence Uncertain,Unknown,Africa and Red Sea,Africa (northeastern) and Red Sea,5.1,35.88,912,Trachybasalt / Tephrite Basanite,Rift zone / Intermediate crust (15-25 km),Holocene
221330,Mega Basalt Field,Ethiopia-Kenya,Pyroclastic cone(s),Evidence Credible,Unknown,Africa and Red Sea,Africa (northeastern) and Red Sea,4.063,37.488,1111,Basalt / Picro-Basalt,Rift zone / Intermediate crust (15-25 km),Holocene
222001,North Island,Kenya,Tuff cone(s),Evidence Credible,Unknown,Africa and Red Sea,Africa (eastern),4.059,36.049,490,Trachyandesite / Basaltic Trachyandesite,Rift zone / Continental crust (>25 km),Holocene
222010,Central Island,Kenya,Tuff cone(s),Evidence Credible,Unknown,Africa and Red Sea,Africa (eastern),3.496,36.04,518,Basalt / Picro-Basalt,Rift zone / Continental crust (>25 km),Holocene
222020,South Island,Kenya,Stratovolcano,Eruption Observed,1888 CE,Africa and Red Sea,Africa (eastern),2.63,36.6,800,Basalt / Picro-Basalt,Rift zone / Continental crust (>25 km),Holocene
222021,Marsabit,Kenya,Shield,Evidence Uncertain,Unknown,Africa and Red Sea,Africa (eastern),2.32,37.97,1707,Basalt / Picro-Basalt,Rift zone / Continental crust (>25 km),Holocene
222030,"Barrier, The",Kenya,Shield,Eruption Observed,1921 CE,Africa and Red Sea,Africa (eastern),2.32,36.57,1032,Trachyte / Trachydacite,Rift zone / Continental crust (>25 km),Holocene
222040,Namarunu,Kenya,Shield,Eruption Dated,6550 BCE,Africa and Red Sea,Africa (eastern),1.98,36.43,817,Basalt / Picro-Basalt,Rift zone / Continental crust (>25 km),Holocene
222050,Segererua Plateau,Kenya,Pyroclastic cone(s),Evidence Credible,Unknown,Africa and Red Sea,Africa (eastern),1.57,37.9,699,Basalt / Picro-Basalt,Rift zone / Continental crust (>25 km),Holocene
222051,Emuruangogolak,Kenya,Shield,Eruption Dated,1910 CE,Africa and Red Sea,Africa (eastern),1.5,36.33,1285,Trachyte / Trachydacite,Rift zone / Continental crust (>25 km),Holocene
222052,Silali,Kenya,Shield,Eruption Dated,5050 BCE,Africa and Red Sea,Africa (eastern),1.15,36.23,1528,Trachyte / Trachydacite,Rift zone / Continental crust (>25 km),Holocene
222053,Paka,Kenya,Shield,Eruption Dated,7550 BCE,Africa and Red Sea,Africa (eastern),0.92,36.18,1697,Trachyte / Trachydacite,Rift zone / Continental crust (>25 km),Holocene
222054,Korosi,Kenya,Shield,Evidence Credible,Unknown,Africa and Red Sea,Africa (eastern),0.77,36.12,1446,Trachyte / Trachydacite,Rift zone / Continental crust (>25 km),Holocene
222055,Ol Kokwe,Kenya,Shield,Evidence Credible,Unknown,Africa and Red Sea,Africa (eastern),0.62,36.075,1130,Basalt / Picro-Basalt,Rift zone / Continental crust (>25 km),Holocene
222056,Nyambeni Hills,Kenya,Shield,Evidence Credible,Unknown,Africa and Red Sea,Africa (eastern),0.23,37.87,750,Basalt / Picro-Basalt,Rift zone / Continental crust (>25 km),Holocene
222060,Menengai,Kenya,Shield,Eruption Dated,6050 BCE,Africa and Red Sea,Africa (eastern),-0.2,36.07,2278,Trachyte / Trachydacite,Rift zone / Continental crust (>25 km),Holocene
222070,Homa Mountain,Kenya,Complex,Evidence Credible,Unknown,Africa and Red Sea,Africa (eastern),-0.38,34.5,1751,Foidite,Rift zone / Continental crust (>25 km),Holocene
222071,Elmenteita Badlands,Kenya,Pyroclastic cone(s),Evidence Credible,Unknown,Africa and Red Sea,Africa (eastern),-0.52,36.27,2126,Basalt / Picro-Basalt,Rift zone / Continental crust (>25 km),Holocene
222080,"Eburru, Ol Doinyo",Kenya,Complex,Evidence Credible,Unknown,Africa and Red Sea,Africa (eastern),-0.65,36.22,2856,Rhyolite,Rift zone / Continental crust (>25 km),Holocene
222090,Olkaria,Kenya,Pyroclastic cone(s),Eruption Dated,1770 CE,Africa and Red Sea,Africa (eastern),-0.904,36.292,2434,Rhyolite,Rift zone / Continental crust (>25 km),Holocene
222100,Longonot,Kenya,Stratovolcano,Eruption Dated,1863 CE,Africa and Red Sea,Africa (eastern),-0.914,36.446,2776,Trachyte / Trachydacite,Rift zone / Continental crust (>25 km),Holocene
222110,Suswa,Kenya,Shield,Evidence Credible,Unknown,Africa and Red Sea,Africa (eastern),-1.151,36.357,2356,Phonolite,Rift zone / Continental crust (>25 km),Holocene
222120,"Lengai, Ol Doinyo",Tanzania,Stratovolcano,Eruption Observed,2020 CE,Africa and Red Sea,Africa (eastern),-2.764,35.914,2962,Foidite,Rift zone / Continental crust (>25 km),Holocene
222130,Chyulu Hills,Kenya,Volcanic field,Eruption Dated,1855 CE,Africa and Red Sea,Africa (eastern),-2.68,37.88,2188,Trachybasalt / Tephrite Basanite,Rift zone / Continental crust (>25 km),Holocene
222160,Meru,Tanzania,Stratovolcano,Eruption Observed,1910 CE,Africa and Red Sea,Africa (eastern),-3.25,36.75,4565,Phonolite,Rift zone / Continental crust (>25 km),Holocene
222161,Igwisi Hills,Tanzania,Pyroclastic cone(s),Eruption Dated,10450 BCE,Africa and Red Sea,Africa (eastern),-4.889,31.933,1146,Foidite,Rift zone / Continental crust (>25 km),Holocene
222164,Ngozi,Tanzania,Caldera,Eruption Dated,1450 CE,Africa and Red Sea,Africa (eastern),-8.989,33.554,2614,Trachyte / Trachydacite,Rift zone / Continental crust (>25 km),Holocene
222166,Rungwe,Tanzania,Stratovolcano,Eruption Dated,1250 CE,Africa and Red Sea,Africa (eastern),-9.135,33.668,2953,Trachyte / Trachydacite,Rift zone / Continental crust (>25 km),Holocene
222170,Kyejo,Tanzania,Stratovolcano,Eruption Observed,1800 CE,Africa and Red Sea,Africa (eastern),-9.229,33.792,2176,Trachyte / Trachydacite,Rift zone / Continental crust (>25 km),Holocene
223001,Fort Portal,Uganda,Tuff cone(s),Eruption Dated,2120 BCE,Africa and Red Sea,Africa (central),0.7,30.25,1615,Foidite,Rift zone / Continental crust (>25 km),Holocene
223002,Kyatwa,Uganda,Tuff cone(s),Evidence Uncertain,Unknown,Africa and Red Sea,Africa (central),0.45,30.25,1430,Foidite,Rift zone / Continental crust (>25 km),Holocene
223003,Katwe-Kikorongo,Uganda,Tuff cone(s),Evidence Credible,Unknown,Africa and Red Sea,Africa (central),-0.08,29.92,1067,Foidite,Rift zone / Continental crust (>25 km),Holocene
223004,Bunyaruguru,Uganda,Maar(s),Evidence Credible,Unknown,Africa and Red Sea,Africa (central),-0.2,30.08,1554,Foidite,Rift zone / Continental crust (>25 km),Holocene
223005,Katunga,Uganda,Tuff cone,Evidence Credible,Unknown,Africa and Red Sea,Africa (central),-0.471,30.191,1707,Foidite,Rift zone / Continental crust (>25 km),Holocene
223020,Nyamuragira,DR Congo,Shield,Eruption Observed,2020 CE,Africa and Red Sea,Africa (central),-1.408,29.2,3058,Trachybasalt / Tephrite Basanite,Rift zone / Continental crust (>25 km),Holocene
223030,Nyiragongo,DR Congo,Stratovolcano,Eruption Observed,2020 CE,Africa and Red Sea,Africa (central),-1.52,29.25,3470,Foidite,Rift zone / Continental crust (>25 km),Holocene
223040,Karisimbi,DR Congo-Rwanda,Stratovolcano,Eruption Dated,8050 BCE,Africa and Red Sea,Africa (central),-1.506,29.45,4490,Trachybasalt / Tephrite Basanite,Rift zone / Continental crust (>25 km),Holocene
223050,Visoke,DR Congo-Rwanda,Stratovolcano,Eruption Observed,1957 CE,Africa and Red Sea,Africa (central),-1.458,29.485,3696,Trachyandesite / Basaltic Trachyandesite,Rift zone / Continental crust (>25 km),Holocene
223060,Muhavura,Uganda-Rwanda,Stratovolcano,Evidence Credible,Unknown,Africa and Red Sea,Africa (central),-1.383,29.678,4103,Trachybasalt / Tephrite Basanite,Rift zone / Continental crust (>25 km),Holocene
223070,Bufumbira,Uganda,Pyroclastic cone(s),Evidence Uncertain,Unknown,Africa and Red Sea,Africa (central),-1.23,29.72,2440,Phono-tephrite /  Tephri-phonolite,Rift zone / Continental crust (>25 km),Holocene
223080,Tshibinda,DR Congo,Pyroclastic cone(s),Evidence Credible,Unknown,Africa and Red Sea,Africa (central),-2.32,28.75,1460,Basalt / Picro-Basalt,Rift zone / Continental crust (>25 km),Holocene
224002,San Carlos,Equatorial Guinea,Shield,Evidence Credible,Unknown,Africa and Red Sea,Africa (western),3.35,8.52,2260,Basalt / Picro-Basalt,Intraplate / Continental crust (>25 km),Holocene
224003,San Joaquin,Equatorial Guinea,Shield,Evidence Credible,Unknown,Africa and Red Sea,Africa (western),3.35,8.63,2009,Basalt / Picro-Basalt,Intraplate / Continental crust (>25 km),Holocene
224004,Santa Isabel,Equatorial Guinea,Shield,Eruption Observed,1923 CE,Africa and Red Sea,Africa (western),3.588,8.762,2999,Basalt / Picro-Basalt,Intraplate / Continental crust (>25 km),Holocene
224010,Cameroon,Cameroon,Stratovolcano,Eruption Observed,2000 CE,Africa and Red Sea,Africa (western),4.203,9.17,4095,Trachybasalt / Tephrite Basanite,Intraplate / Continental crust (>25 km),Holocene
224011,Tombel Graben,Cameroon,Pyroclastic cone(s),Evidence Credible,Unknown,Africa and Red Sea,Africa (western),4.758,9.717,500,Trachybasalt / Tephrite Basanite,Intraplate / Continental crust (>25 km),Holocene
224030,Oku Volcanic Field,Cameroon,Stratovolcano,Evidence Uncertain,Unknown,Africa and Red Sea,Africa (western),6.25,10.5,3011,Basalt / Picro-Basalt,Intraplate / Continental crust (>25 km),Holocene
225001,Todra Volcanic Field,Niger,Pyroclastic cone(s),Evidence Credible,Unknown,Africa and Red Sea,Africa (northern),17.68,8.5,1780,Basalt / Picro-Basalt,Intraplate / Continental crust (>25 km),Holocene
225002,Tin Zaouatene Volcanic Field,Mali,Volcanic field,Evidence Credible,Unknown,Africa and Red Sea,Africa (northern),19.83,2.83,700,Trachybasalt / Tephrite Basanite,Intraplate / Continental crust (>25 km),Holocene
225004,Tahalra Volcanic Field,Algeria,Pyroclastic cone(s),Evidence Credible,Unknown,Africa and Red Sea,Africa (northern),22.67,5,1467,Trachybasalt / Tephrite Basanite,Intraplate / Continental crust (>25 km),Holocene
225005,Atakor Volcanic Field,Algeria,Pyroclastic cone(s),Evidence Credible,Unknown,Africa and Red Sea,Africa (northern),23.33,5.83,2918,Trachybasalt / Tephrite Basanite,Intraplate / Continental crust (>25 km),Holocene
225006,Manzaz Volcanic Field,Algeria,Pyroclastic cone(s),Evidence Credible,Unknown,Africa and Red Sea,Africa (northern),23.92,5.83,1672,Trachybasalt / Tephrite Basanite,Intraplate / Continental crust (>25 km),Holocene
225009,"Toh, Tarso",Chad,Volcanic field,Evidence Credible,Unknown,Africa and Red Sea,Africa (northern),21.33,16.33,2000,Basalt / Picro-Basalt,Intraplate / Continental crust (>25 km),Holocene
225010,"Tousside, Tarso",Chad,Stratovolcano,Evidence Credible,Unknown,Africa and Red Sea,Africa (northern),21.03,16.45,3265,Trachyte / Trachydacite,Intraplate / Continental crust (>25 km),Holocene
225020,"Voon, Tarso",Chad,Stratovolcano,Unrest / Holocene,Unknown,Africa and Red Sea,Africa (northern),20.92,17.28,3100,Trachyte / Trachydacite,Intraplate / Continental crust (>25 km),Holocene
225021,"Koussi, Emi",Chad,Pyroclastic shield,Evidence Credible,Unknown,Africa and Red Sea,Africa (northern),19.8,18.53,3415,Trachyte / Trachydacite,Intraplate / Continental crust (>25 km),Holocene
225030,"Marra, Jebel",Sudan,Volcanic field,Eruption Dated,2000 BCE,Africa and Red Sea,Africa (northern),12.95,24.27,3042,Basalt / Picro-Basalt,Intraplate / Continental crust (>25 km),Holocene
225040,Kutum Volcanic Field,Sudan,Pyroclastic cone(s),Evidence Uncertain,Unknown,Africa and Red Sea,Africa (northern),14.57,25.85,1779,Basalt / Picro-Basalt,Intraplate / Continental crust (>25 km),Holocene
225050,Meidob Volcanic Field,Sudan,Pyroclastic cone(s),Eruption Dated,2950 BCE,Africa and Red Sea,Africa (northern),15.32,26.47,2000,Trachybasalt / Tephrite Basanite,Intraplate / Continental crust (>25 km),Holocene
225060,Bayuda Volcanic Field,Sudan,Pyroclastic cone(s),Eruption Dated,850 CE,Africa and Red Sea,Africa (northern),18.33,32.75,670,Trachybasalt / Tephrite Basanite,Intraplate / Continental crust (>25 km),Holocene
230010,Sharat Kovakab,Syria,Volcanic field,Evidence Credible,Unknown,Middle East and Indian Ocean,Middle East (western),36.536,40.858,516,Basalt / Picro-Basalt,Rift zone / Continental crust (>25 km),Holocene
231001,Harrat Ash Shamah,Syria-Jordan-Saudi Arabia,Volcanic field,Eruption Observed,1850 CE,Middle East and Indian Ocean,Middle East (western),32.333,37.583,1100,Basalt / Picro-Basalt,Intraplate / Continental crust (>25 km),Holocene
231010,"Rahah, Harrat ar",Saudi Arabia,Volcanic field,Evidence Credible,Unknown,Middle East and Indian Ocean,Middle East (southern),27.8,36.17,1950,Basalt / Picro-Basalt,Intraplate / Continental crust (>25 km),Holocene
231020,"Uwayrid, Harrat",Saudi Arabia,Volcanic field,Eruption Dated,640 CE,Middle East and Indian Ocean,Middle East (southern),27.08,37.25,1920,Basalt / Picro-Basalt,Intraplate / Continental crust (>25 km),Holocene
231040,"Lunayyir, Harrat",Saudi Arabia,Volcanic field,Eruption Observed,1000 CE,Middle East and Indian Ocean,Middle East (southern),25.17,37.75,1370,Basalt / Picro-Basalt,Intraplate / Continental crust (>25 km),Holocene
231050,"Ithnayn, Harrat",Saudi Arabia,Volcanic field,Evidence Credible,Unknown,Middle East and Indian Ocean,Middle East (southern),26.58,40.2,1625,Basalt / Picro-Basalt,Intraplate / Continental crust (>25 km),Holocene
231060,"Khaybar, Harrat",Saudi Arabia,Volcanic field,Eruption Observed,650 CE,Middle East and Indian Ocean,Middle East (southern),25,39.92,2093,Basalt / Picro-Basalt,Intraplate / Continental crust (>25 km),Holocene
231070,"Rahat, Harrat",Saudi Arabia,Volcanic field,Eruption Observed,1256 CE,Middle East and Indian Ocean,Middle East (southern),23.08,39.78,1744,Basalt / Picro-Basalt,Intraplate / Continental crust (>25 km),Holocene
231071,"Kishb, Harrat",Saudi Arabia,Volcanic field,Evidence Credible,Unknown,Middle East and Indian Ocean,Middle East (southern),22.8,41.38,1475,Trachybasalt / Tephrite Basanite,Intraplate / Continental crust (>25 km),Holocene
231072,"Birk, Harrat al",Saudi Arabia,Volcanic field,Evidence Credible,Unknown,Middle East and Indian Ocean,Middle East (southern),18.37,41.63,587,Basalt / Picro-Basalt,Intraplate / Continental crust (>25 km),Holocene
231080,"Yar, Jabal",Saudi Arabia,Volcanic field,Eruption Observed,1810 CE,Middle East and Indian Ocean,Middle East (southern),17.05,42.83,305,Basalt / Picro-Basalt,Intraplate / Continental crust (>25 km),Holocene
231090,"Arhab, Harra of",Yemen,Volcanic field,Eruption Observed,500 CE,Middle East and Indian Ocean,Middle East (southern),15.63,44.08,3100,Trachybasalt / Tephrite Basanite,Intraplate / Continental crust (>25 km),Holocene
231100,"Marha, Jabal el-",Yemen,Tuff cone,Evidence Uncertain,Unknown,Middle East and Indian Ocean,Middle East (southern),15.245,44.236,2506,Basalt / Picro-Basalt,Intraplate / Continental crust (>25 km),Holocene
231110,"Haylan, Jabal",Yemen,Volcanic field,Eruption Dated,1200 BCE,Middle East and Indian Ocean,Middle East (southern),15.4,45.1,1550,Basalt / Picro-Basalt,Intraplate / Continental crust (>25 km),Holocene
231120,"Dhamar, Harras of",Yemen,Volcanic field,Eruption Observed,1937 CE,Middle East and Indian Ocean,Middle East (southern),14.57,44.67,3500,Basalt / Picro-Basalt,Intraplate / Continental crust (>25 km),Holocene
231160,"Sawad, Harra Es-",Yemen,Volcanic field,Eruption Observed,1253 CE,Middle East and Indian Ocean,Middle East (southern),13.58,46.12,1737,Trachybasalt / Tephrite Basanite,Intraplate / Continental crust (>25 km),Holocene
231170,"Bal Haf, Harra of",Yemen,Volcanic field,Evidence Credible,Unknown,Middle East and Indian Ocean,Middle East (southern),14.067,48.3,604,Basalt / Picro-Basalt,Intraplate / Continental crust (>25 km),Holocene
231180,Bir Borhut,Yemen,Volcanic field,Evidence Uncertain,Unknown,Middle East and Indian Ocean,Middle East (southern),15.515,50.935,464,Basalt / Picro-Basalt,Intraplate / Continental crust (>25 km),Holocene
232001,Sahand,Iran,Stratovolcano,Evidence Credible,Unknown,Middle East and Indian Ocean,Middle East (western),37.75,46.43,3707,Andesite / Basaltic Andesite,Intraplate / Continental crust (>25 km),Holocene
232002,Sabalan,Iran,Stratovolcano,Evidence Credible,Unknown,Middle East and Indian Ocean,Middle East (western),38.268,47.835,4784,Andesite / Basaltic Andesite,Intraplate / Continental crust (>25 km),Holocene
232010,Damavand,Iran,Stratovolcano,Eruption Dated,5350 BCE,Middle East and Indian Ocean,Middle East (western),35.951,52.109,5670,Trachyandesite / Basaltic Trachyandesite,Intraplate / Continental crust (>25 km),Holocene
232030,Bazman,Iran,Stratovolcano,Unrest / Holocene,Unknown,Middle East and Indian Ocean,Middle East (eastern),28.07,60,3490,Andesite / Basaltic Andesite,Intraplate / Continental crust (>25 km),Holocene
232040,Kuh-e Nader,Iran,Volcanic field,Evidence Uncertain,Unknown,Middle East and Indian Ocean,Middle East (eastern),28.17,60.67,1500,Basalt / Picro-Basalt,Intraplate / Continental crust (>25 km),Holocene
232050,Taftan,Iran,Stratovolcano,Evidence Credible,Unknown,Middle East and Indian Ocean,Middle East (eastern),28.6,61.13,3940,Andesite / Basaltic Andesite,Intraplate / Continental crust (>25 km),Holocene
233001,"Grille, La",Comoros,Shield,Evidence Credible,Unknown,Middle East and Indian Ocean,Indian Ocean (western),-11.47,43.33,1087,Trachybasalt / Tephrite Basanite,Intraplate / Oceanic crust (< 15 km),Holocene
233005,Mayotte,France,Shield,Eruption Observed,2019 CE,Middle East and Indian Ocean,Indian Ocean (western),-12.83,45.17,660,Basalt / Picro-Basalt,Intraplate / Oceanic crust (< 15 km),Holocene
233010,Karthala,Comoros,Shield,Eruption Observed,2007 CE,Middle East and Indian Ocean,Indian Ocean (western),-11.75,43.38,2361,Basalt / Picro-Basalt,Intraplate / Oceanic crust (< 15 km),Holocene
233011,Ambre-Bobaomby,Madagascar,Volcanic field,Evidence Credible,Unknown,Middle East and Indian Ocean,Indian Ocean (western),-12.6,49.15,1475,Basalt / Picro-Basalt,Intraplate / Continental crust (>25 km),Holocene
233012,Nosy-Be,Madagascar,Pyroclastic cone(s),Evidence Credible,Unknown,Middle East and Indian Ocean,Indian Ocean (western),-13.32,48.48,214,Foidite,Intraplate / Continental crust (>25 km),Holocene
233013,Ankaizina Field,Madagascar,Pyroclastic cone(s),Evidence Credible,Unknown,Middle East and Indian Ocean,Indian Ocean (western),-14.3,48.67,2878,Basalt / Picro-Basalt,Intraplate / Continental crust (>25 km),Holocene
233014,Itasy Volcanic Field,Madagascar,Pyroclastic cone(s),Eruption Dated,6050 BCE,Middle East and Indian Ocean,Indian Ocean (western),-19.033,46.7,1800,Trachyte / Trachydacite,Intraplate / Continental crust (>25 km),Holocene
233015,Vakinankaratra,Madagascar,Pyroclastic cone(s),Evidence Credible,Unknown,Middle East and Indian Ocean,Indian Ocean (western),-19.85,46.942,2644,Trachybasalt / Tephrite Basanite,Intraplate / Continental crust (>25 km),Holocene
233020,"Fournaise, Piton de la",France,Shield,Eruption Observed,2020 CE,Middle East and Indian Ocean,Indian Ocean (western),-21.244,55.708,2632,Basalt / Picro-Basalt,Intraplate / Oceanic crust (< 15 km),Holocene
234000,Boomerang Seamount,France,Submarine,Eruption Dated,1995 CE,Middle East and Indian Ocean,Indian Ocean (southern),-37.721,77.825,-650,Basalt / Picro-Basalt,Rift zone / Oceanic crust (< 15 km),Holocene
234001,Amsterdam Island,France,Stratovolcano,Evidence Credible,Unknown,Middle East and Indian Ocean,Indian Ocean (southern),-37.83,77.52,881,Basalt / Picro-Basalt,Rift zone / Oceanic crust (< 15 km),Holocene
234002,St. Paul,France,Stratovolcano,Eruption Observed,1793 CE,Middle East and Indian Ocean,Indian Ocean (southern),-38.72,77.53,268,Basalt / Picro-Basalt,Rift zone / Oceanic crust (< 15 km),Holocene
234010,Heard,Australia,Stratovolcano,Eruption Observed,2020 CE,Middle East and Indian Ocean,Indian Ocean (southern),-53.106,73.513,2745,Trachybasalt / Tephrite Basanite,Intraplate / Oceanic crust (< 15 km),Holocene
234011,McDonald Islands,Australia,Complex,Eruption Observed,2005 CE,Middle East and Indian Ocean,Indian Ocean (southern),-53.03,72.6,230,Phonolite,Intraplate / Oceanic crust (< 15 km),Holocene
234020,Kerguelen Islands,France,Stratovolcano(es),Evidence Uncertain,Unknown,Middle East and Indian Ocean,Indian Ocean (southern),-49.58,69.5,1840,Trachyandesite / Basaltic Trachyandesite,Intraplate / Oceanic crust (< 15 km),Holocene
234030,"Est, Ile de l'",France,Stratovolcano,Evidence Uncertain,Unknown,Middle East and Indian Ocean,Indian Ocean (southern),-46.43,52.2,1090,Basalt / Picro-Basalt,Rift zone / Oceanic crust (< 15 km),Holocene
234040,"Possession, Ile de la",France,Stratovolcano,Evidence Credible,Unknown,Middle East and Indian Ocean,Indian Ocean (southern),-46.42,51.75,934,Basalt / Picro-Basalt,Rift zone / Oceanic crust (< 15 km),Holocene
234050,"Cochons, Ile aux",France,Stratovolcano,Evidence Credible,Unknown,Middle East and Indian Ocean,Indian Ocean (southern),-46.1,50.23,775,Basalt / Picro-Basalt,Rift zone / Oceanic crust (< 15 km),Holocene
234060,Prince Edward Island,South Africa,Shield,Evidence Credible,Unknown,Middle East and Indian Ocean,Indian Ocean (southern),-46.63,37.95,672,Basalt / Picro-Basalt,Rift zone / Oceanic crust (< 15 km),Holocene
234070,Marion Island,South Africa,Shield(s),Eruption Observed,2004 CE,Middle East and Indian Ocean,Indian Ocean (southern),-46.9,37.75,1230,Basalt / Picro-Basalt,Rift zone / Oceanic crust (< 15 km),Holocene
241010,Kaikohe-Bay of Islands,New Zealand,Volcanic field,Eruption Dated,400 CE,New Zealand to Fiji,New Zealand,-35.3,173.9,388,Trachybasalt / Tephrite Basanite,Subduction zone / Continental crust (>25 km),Holocene
241011,Whangarei,New Zealand,Pyroclastic cone(s),Evidence Uncertain,Unknown,New Zealand to Fiji,New Zealand,-35.75,174.27,397,Trachybasalt / Tephrite Basanite,Subduction zone / Continental crust (>25 km),Holocene
241020,Auckland Volcanic Field,New Zealand,Volcanic field,Eruption Dated,1350 CE,New Zealand to Fiji,New Zealand,-36.9,174.87,260,Trachybasalt / Tephrite Basanite,Subduction zone / Continental crust (>25 km),Holocene
241021,Mayor Island,New Zealand,Shield,Eruption Dated,5060 BCE,New Zealand to Fiji,New Zealand,-37.28,176.25,355,Rhyolite,Subduction zone / Continental crust (>25 km),Holocene
241030,Taranaki,New Zealand,Stratovolcano,Eruption Observed,1800 CE,New Zealand to Fiji,New Zealand,-39.3,174.07,2518,Andesite / Basaltic Andesite,Subduction zone / Continental crust (>25 km),Holocene
241040,Whakaari/White Island,New Zealand,Stratovolcano(es),Eruption Observed,2019 CE,New Zealand to Fiji,New Zealand,-37.52,177.18,294,Andesite / Basaltic Andesite,Subduction zone / Continental crust (>25 km),Holocene
241050,Okataina,New Zealand,Lava dome(s),Eruption Observed,1981 CE,New Zealand to Fiji,New Zealand,-38.12,176.5,1111,Rhyolite,Subduction zone / Continental crust (>25 km),Holocene
241060,Reporoa,New Zealand,Caldera,Eruption Dated,1180 CE,New Zealand to Fiji,New Zealand,-38.42,176.33,592,Rhyolite,Subduction zone / Continental crust (>25 km),Holocene
241061,Maroa,New Zealand,Caldera(s),Eruption Dated,180 CE,New Zealand to Fiji,New Zealand,-38.42,176.08,897,Rhyolite,Subduction zone / Continental crust (>25 km),Holocene
241070,Taupo,New Zealand,Caldera,Eruption Dated,260 CE,New Zealand to Fiji,New Zealand,-38.82,176,760,Rhyolite,Subduction zone / Continental crust (>25 km),Holocene
241080,Tongariro,New Zealand,Stratovolcano(es),Eruption Observed,2012 CE,New Zealand to Fiji,New Zealand,-39.157,175.632,1978,Andesite / Basaltic Andesite,Subduction zone / Continental crust (>25 km),Holocene
241100,Ruapehu,New Zealand,Stratovolcano,Eruption Observed,2007 CE,New Zealand to Fiji,New Zealand,-39.28,175.57,2797,Andesite / Basaltic Andesite,Subduction zone / Continental crust (>25 km),Holocene
241101,Clark,New Zealand,Submarine,Unrest / Holocene,Unknown,New Zealand to Fiji,New Zealand,-36.446,177.839,-860,Basalt / Picro-Basalt,Subduction zone / Oceanic crust (< 15 km),Holocene
241102,Tangaroa,New Zealand,Submarine,Unrest / Holocene,Unknown,New Zealand to Fiji,New Zealand,-36.321,178.028,-600,Basalt / Picro-Basalt,Subduction zone / Oceanic crust (< 15 km),Holocene
241110,Rumble V,New Zealand,Submarine,Unrest / Holocene,Unknown,New Zealand to Fiji,New Zealand,-36.142,178.196,-400,Andesite / Basaltic Andesite,Subduction zone / Oceanic crust (< 15 km),Holocene
241120,Rumble IV,New Zealand,Submarine,Unrest / Holocene,Unknown,New Zealand to Fiji,New Zealand,-36.13,178.05,-500,Andesite / Basaltic Andesite,Subduction zone / Oceanic crust (< 15 km),Holocene
241130,Rumble III,New Zealand,Submarine,Eruption Observed,2008 CE,New Zealand to Fiji,New Zealand,-35.745,178.478,-220,Andesite / Basaltic Andesite,Subduction zone / Oceanic crust (< 15 km),Holocene
241131,Rumble II West,New Zealand,Submarine,Unrest / Holocene,Unknown,New Zealand to Fiji,New Zealand,-35.353,178.527,-1200,Andesite / Basaltic Andesite,Subduction zone / Oceanic crust (< 15 km),Holocene
241140,Healy,New Zealand,Submarine,Eruption Dated,1360 CE,New Zealand to Fiji,New Zealand,-35.004,178.973,-980,Dacite,Subduction zone / Oceanic crust (< 15 km),Holocene
241150,Brothers,New Zealand,Submarine,Unrest / Holocene,Unknown,New Zealand to Fiji,New Zealand,-34.875,179.075,-1350,Dacite,Subduction zone / Oceanic crust (< 15 km),Holocene
242001,Wright,New Zealand,Submarine(es),Unrest / Holocene,Unknown,New Zealand to Fiji,Kermadec Islands,-31.85,-179.18,-900,Basalt / Picro-Basalt,Subduction zone / Oceanic crust (< 15 km),Holocene
242005,Havre Seamount,New Zealand,Submarine,Eruption Observed,2012 CE,New Zealand to Fiji,Kermadec Islands,-31.08,-179.033,-897,,Subduction zone / Oceanic crust (< 15 km),Holocene
242010,Curtis Island,New Zealand,Submarine,Unrest / Holocene,Unknown,New Zealand to Fiji,Kermadec Islands,-30.543,-178.556,47,Andesite / Basaltic Andesite,Subduction zone / Oceanic crust (< 15 km),Holocene
242021,Macauley,New Zealand,Caldera,Eruption Dated,4360 BCE,New Zealand to Fiji,Kermadec Islands,-30.21,-178.475,238,Basalt / Picro-Basalt,Subduction zone / Oceanic crust (< 15 km),Holocene
242022,Giggenbach,New Zealand,Submarine,Unrest / Holocene,Unknown,New Zealand to Fiji,Kermadec Islands,-30.036,-178.712,-65,Basalt / Picro-Basalt,Subduction zone / Oceanic crust (< 15 km),Holocene
242030,Raoul Island,New Zealand,Stratovolcano,Eruption Observed,2006 CE,New Zealand to Fiji,Kermadec Islands,-29.27,-177.92,516,Andesite / Basaltic Andesite,Subduction zone / Oceanic crust (< 15 km),Holocene
242050,Monowai,New Zealand,Submarine,Eruption Observed,2012 CE,New Zealand to Fiji,Tonga Islands,-25.887,-177.188,-132,Basalt / Picro-Basalt,Subduction zone / Oceanic crust (< 15 km),Holocene
243001,Unnamed,Undersea Features,Submarine,Unrest / Holocene,Unknown,New Zealand to Fiji,Tonga Islands,-24.8,-177.02,-385,Basalt / Picro-Basalt,Subduction zone / Oceanic crust (< 15 km),Holocene
243010,Unnamed,Tonga,Submarine,Eruption Observed,1932 CE,New Zealand to Fiji,Tonga Islands,-21.338,-175.65,-68,No Data (checked),Subduction zone / Oceanic crust (< 15 km),Holocene
243011,Unnamed,Tonga,Submarine,Evidence Credible,Unknown,New Zealand to Fiji,Tonga Islands,-21.15,-175.75,-65,Andesite / Basaltic Andesite,Subduction zone / Oceanic crust (< 15 km),Holocene
243030,Unnamed,Tonga,Submarine,Eruption Observed,2017 CE,New Zealand to Fiji,Tonga Islands,-20.852,-175.55,-296,No Data (checked),Subduction zone / Oceanic crust (< 15 km),Holocene
243040,Hunga Tonga-Hunga Ha'apai,Tonga,Submarine,Eruption Observed,2015 CE,New Zealand to Fiji,Tonga Islands,-20.536,-175.382,114,Andesite / Basaltic Andesite,Subduction zone / Oceanic crust (< 15 km),Holocene
243050,Fonuafo'ou,Tonga,Submarine,Eruption Observed,1936 CE,New Zealand to Fiji,Tonga Islands,-20.32,-175.42,-17,Andesite / Basaltic Andesite,Subduction zone / Oceanic crust (< 15 km),Holocene
243060,Tofua,Tonga,Caldera,Eruption Observed,2014 CE,New Zealand to Fiji,Tonga Islands,-19.75,-175.07,515,Andesite / Basaltic Andesite,Subduction zone / Oceanic crust (< 15 km),Holocene
243061,Kao,Tonga,Stratovolcano,Eruption Observed,1847 CE,New Zealand to Fiji,Tonga Islands,-19.668,-175.016,1009,Andesite / Basaltic Andesite,Subduction zone / Oceanic crust (< 15 km),Holocene
243070,Lateiki,Tonga,Submarine,Eruption Observed,2019 CE,New Zealand to Fiji,Tonga Islands,-19.18,-174.87,43,Dacite,Subduction zone / Oceanic crust (< 15 km),Holocene
243080,Home Reef,Tonga,Submarine,Eruption Observed,2006 CE,New Zealand to Fiji,Tonga Islands,-18.992,-174.775,-10,Dacite,Subduction zone / Oceanic crust (< 15 km),Holocene
243090,Late,Tonga,Stratovolcano,Eruption Observed,1854 CE,New Zealand to Fiji,Tonga Islands,-18.806,-174.65,540,Andesite / Basaltic Andesite,Subduction zone / Oceanic crust (< 15 km),Holocene
243091,Unnamed,Tonga,Submarine,Eruption Observed,2001 CE,New Zealand to Fiji,Tonga Islands,-18.325,-174.365,-40,Dacite,Subduction zone / Oceanic crust (< 15 km),Holocene
243100,Fonualei,Tonga,Stratovolcano,Eruption Observed,1957 CE,New Zealand to Fiji,Tonga Islands,-18.023,-174.317,188,Dacite,Subduction zone / Oceanic crust (< 15 km),Holocene
243101,Tafahi,Tonga,Stratovolcano,Evidence Uncertain,Unknown,New Zealand to Fiji,Tonga Islands,-15.85,-173.72,560,Andesite / Basaltic Andesite,Subduction zone / Oceanic crust (< 15 km),Holocene
243102,Curacoa,Tonga,Submarine,Eruption Observed,1979 CE,New Zealand to Fiji,Tonga Islands,-15.62,-173.67,-33,Dacite,Subduction zone / Oceanic crust (< 15 km),Holocene
243110,Niuafo'ou,Tonga,Shield,Eruption Observed,1985 CE,New Zealand to Fiji,Tonga Islands,-15.6,-175.63,260,Basalt / Picro-Basalt,Subduction zone / Oceanic crust (< 15 km),Holocene
243111,Dugong,Tonga,Submarine,Evidence Uncertain,Unknown,New Zealand to Fiji,Tonga Islands,-15.431,-175.725,-1170,,,Holocene
243112,Lobster,Tonga,Submarine,Evidence Uncertain,Unknown,New Zealand to Fiji,Tonga Islands,-15.333,-176.283,-1500,,,Holocene
243120,Tafu-Maka,Tonga,Submarine,Eruption Observed,2008 CE,New Zealand to Fiji,Tonga Islands,-15.37,-174.23,-1400,Basalt / Picro-Basalt,Rift zone / Oceanic crust (< 15 km),Holocene
243130,West Mata,Tonga,Submarine,Eruption Observed,2009 CE,New Zealand to Fiji,Tonga Islands,-15.1,-173.75,-1174,Andesite / Basaltic Andesite,Subduction zone / Oceanic crust (< 15 km),Holocene
243140,Niuatahi,Tonga,Caldera,Unrest / Holocene,Unknown,New Zealand to Fiji,Tonga Islands,-15.379,-174.003,-1270,,Subduction zone / Oceanic crust (< 15 km),Holocene
244000,Vailulu'u,United States,Submarine,Eruption Observed,2003 CE,New Zealand to Fiji,Samoan and Wallis Islands,-14.215,-169.058,-592,Basalt / Picro-Basalt,Subduction zone / Oceanic crust (< 15 km),Holocene
244001,Ta'u,United States,Shield,Evidence Credible,Unknown,New Zealand to Fiji,Samoan and Wallis Islands,-14.23,-169.454,931,Basalt / Picro-Basalt,Subduction zone / Oceanic crust (< 15 km),Holocene
244010,Ofu-Olosega,United States,Shield(s),Eruption Observed,1866 CE,New Zealand to Fiji,Samoan and Wallis Islands,-14.175,-169.618,639,Basalt / Picro-Basalt,Subduction zone / Oceanic crust (< 15 km),Holocene
244020,Tutuila,United States,Tuff cone(s),Eruption Dated,440 CE,New Zealand to Fiji,Samoan and Wallis Islands,-14.295,-170.7,653,Basalt / Picro-Basalt,Subduction zone / Oceanic crust (< 15 km),Holocene
244030,Upolu,Samoa,Shield,Evidence Credible,Unknown,New Zealand to Fiji,Samoan and Wallis Islands,-13.935,-171.72,1100,Basalt / Picro-Basalt,Subduction zone / Oceanic crust (< 15 km),Holocene
244040,Savai'i,Samoa,Shield,Eruption Observed,1911 CE,New Zealand to Fiji,Samoan and Wallis Islands,-13.612,-172.525,1858,Basalt / Picro-Basalt,Subduction zone / Oceanic crust (< 15 km),Holocene
244050,Wallis Islands,France,Shield(s),Evidence Credible,Unknown,New Zealand to Fiji,Samoan and Wallis Islands,-13.3,-176.17,143,Basalt / Picro-Basalt,Subduction zone / Oceanic crust (< 15 km),Holocene
245010,Taveuni,Fiji,Shield,Eruption Dated,1550 CE,New Zealand to Fiji,Fiji Islands,-16.82,-179.97,1241,Basalt / Picro-Basalt,Subduction zone / Crustal thickness unknown,Holocene
245020,Koro,Fiji,Pyroclastic cone(s),Evidence Uncertain,Unknown,New Zealand to Fiji,Fiji Islands,-17.32,179.4,522,Basalt / Picro-Basalt,Subduction zone / Crustal thickness unknown,Holocene
245030,Nabukelevu,Fiji,Lava dome(s),Eruption Dated,1660 CE,New Zealand to Fiji,Fiji Islands,-19.12,177.98,805,Andesite / Basaltic Andesite,Subduction zone / Crustal thickness unknown,Holocene
250010,St. Andrew Strait,Papua New Guinea,Complex,Eruption Observed,1957 CE,Melanesia and Australia,Admiralty Islands,-2.38,147.35,270,Rhyolite,Subduction zone / Oceanic crust (< 15 km),Holocene
250020,Baluan,Papua New Guinea,Stratovolcano,Evidence Uncertain,Unknown,Melanesia and Australia,Admiralty Islands,-2.57,147.28,254,Basalt / Picro-Basalt,Subduction zone / Continental crust (>25 km),Holocene
250030,Central Bismarck Sea,Papua New Guinea,Submarine,Eruption Dated,1972 CE,Melanesia and Australia,Admiralty Islands,-3.03,147.78,-1300,No Data (checked),Rift zone / Continental crust (>25 km),Holocene
251001,Blup Blup,Papua New Guinea,Stratovolcano,Evidence Credible,Unknown,Melanesia and Australia,Northeast of New Guinea,-3.507,144.605,402,Andesite / Basaltic Andesite,Subduction zone / Continental crust (>25 km),Holocene
251002,Kadovar,Papua New Guinea,Stratovolcano,Evidence Credible,2020 CE,Melanesia and Australia,Northeast of New Guinea,-3.608,144.588,365,Andesite / Basaltic Andesite,Subduction zone / Continental crust (>25 km),Holocene
251010,Bam,Papua New Guinea,Stratovolcano,Eruption Observed,1960 CE,Melanesia and Australia,Northeast of New Guinea,-3.613,144.818,685,Andesite / Basaltic Andesite,Subduction zone / Continental crust (>25 km),Holocene
251011,Boisa,Papua New Guinea,Stratovolcano,Evidence Uncertain,Unknown,Melanesia and Australia,Northeast of New Guinea,-3.994,144.963,240,Basalt / Picro-Basalt,Subduction zone / Continental crust (>25 km),Holocene
251020,Manam,Papua New Guinea,Stratovolcano,Eruption Observed,2020 CE,Melanesia and Australia,Northeast of New Guinea,-4.08,145.037,1807,Basalt / Picro-Basalt,Subduction zone / Continental crust (>25 km),Holocene
251030,Karkar,Papua New Guinea,Stratovolcano,Eruption Observed,2014 CE,Melanesia and Australia,Northeast of New Guinea,-4.649,145.964,1839,Andesite / Basaltic Andesite,Subduction zone / Continental crust (>25 km),Holocene
251041,Hankow Reef,Papua New Guinea,Submarine,Evidence Uncertain,Unknown,Melanesia and Australia,Northeast of New Guinea,-4.883,146.717,-5,No Data (checked),Subduction zone / Continental crust (>25 km),Holocene
251050,Long Island,Papua New Guinea,Complex,Eruption Observed,1993 CE,Melanesia and Australia,Northeast of New Guinea,-5.358,147.12,1280,Andesite / Basaltic Andesite,Subduction zone / Continental crust (>25 km),Holocene
251060,Umboi,Papua New Guinea,Complex,Evidence Credible,Unknown,Melanesia and Australia,Northeast of New Guinea,-5.589,147.875,1548,Basalt / Picro-Basalt,Subduction zone / Continental crust (>25 km),Holocene
251070,Ritter Island,Papua New Guinea,Stratovolcano,Eruption Observed,2007 CE,Melanesia and Australia,Northeast of New Guinea,-5.519,148.115,75,Basalt / Picro-Basalt,Subduction zone / Continental crust (>25 km),Holocene
251080,Sakar,Papua New Guinea,Stratovolcano,Evidence Uncertain,Unknown,Melanesia and Australia,Northeast of New Guinea,-5.414,148.094,992,Basalt / Picro-Basalt,Subduction zone / Continental crust (>25 km),Holocene
252010,Langila,Papua New Guinea,Complex,Eruption Observed,2018 CE,Melanesia and Australia,New Britain,-5.525,148.42,1330,Basalt / Picro-Basalt,Subduction zone / Continental crust (>25 km),Holocene
252021,Mundua,Papua New Guinea,Complex,Evidence Credible,Unknown,Melanesia and Australia,New Britain,-4.624,149.339,171,Basalt / Picro-Basalt,Subduction zone / Continental crust (>25 km),Holocene
252030,Garove,Papua New Guinea,Stratovolcano,Evidence Credible,Unknown,Melanesia and Australia,New Britain,-4.687,149.511,368,Andesite / Basaltic Andesite,Subduction zone / Oceanic crust (< 15 km),Holocene
252040,Dakataua,Papua New Guinea,Caldera,Eruption Dated,1895 CE,Melanesia and Australia,New Britain,-5.094,150.094,408,Andesite / Basaltic Andesite,Subduction zone / Continental crust (>25 km),Holocene
252050,Bola,Papua New Guinea,Stratovolcano,Evidence Credible,Unknown,Melanesia and Australia,New Britain,-5.141,150.038,1116,Andesite / Basaltic Andesite,Subduction zone / Continental crust (>25 km),Holocene
252060,Garua Harbour,Papua New Guinea,Volcanic field,Evidence Uncertain,Unknown,Melanesia and Australia,New Britain,-5.3,150.07,565,Rhyolite,Subduction zone / Continental crust (>25 km),Holocene
252070,Krummel-Garbuna-Welcker,Papua New Guinea,Stratovolcano(es),Eruption Observed,2008 CE,Melanesia and Australia,New Britain,-5.416,150.027,564,Andesite / Basaltic Andesite,Subduction zone / Continental crust (>25 km),Holocene
252071,Lolo,Papua New Guinea,Stratovolcano,Evidence Uncertain,Unknown,Melanesia and Australia,New Britain,-5.466,150.509,796,Andesite / Basaltic Andesite,Subduction zone / Continental crust (>25 km),Holocene
252080,Witori,Papua New Guinea,Caldera,Eruption Observed,2012 CE,Melanesia and Australia,New Britain,-5.576,150.516,724,Dacite,Subduction zone / Continental crust (>25 km),Holocene
252090,Sulu Range,Papua New Guinea,Stratovolcano(es),Unrest / Holocene,Unknown,Melanesia and Australia,New Britain,-5.5,150.942,610,Andesite / Basaltic Andesite,Subduction zone / Continental crust (>25 km),Holocene
252100,Hargy,Papua New Guinea,Stratovolcano,Eruption Dated,950 CE,Melanesia and Australia,New Britain,-5.33,151.1,1148,Dacite,Subduction zone / Continental crust (>25 km),Holocene
252110,Bamus,Papua New Guinea,Stratovolcano,Eruption Observed,1886 CE,Melanesia and Australia,New Britain,-5.2,151.23,2248,Andesite / Basaltic Andesite,Subduction zone / Continental crust (>25 km),Holocene
252120,Ulawun,Papua New Guinea,Stratovolcano,Eruption Observed,2019 CE,Melanesia and Australia,New Britain,-5.05,151.33,2334,Basalt / Picro-Basalt,Subduction zone / Continental crust (>25 km),Holocene
252130,Lolobau,Papua New Guinea,Caldera,Eruption Observed,1912 CE,Melanesia and Australia,New Britain,-4.92,151.158,858,Basalt / Picro-Basalt,Subduction zone / Continental crust (>25 km),Holocene
252140,Rabaul,Papua New Guinea,Pyroclastic shield,Eruption Observed,2014 CE,Melanesia and Australia,New Britain,-4.271,152.203,688,Dacite,Subduction zone / Continental crust (>25 km),Holocene
252150,Tavui,Papua New Guinea,Caldera,Eruption Dated,4946 BCE,Melanesia and Australia,New Britain,-4.12,152.2,200,Rhyolite,Subduction zone / Continental crust (>25 km),Holocene
253004,Madilogo,Papua New Guinea,Pyroclastic cone,Evidence Credible,Unknown,Melanesia and Australia,New Guinea and D'Entrecasteaux Islands,-9.2,147.57,850,Trachybasalt / Tephrite Basanite,Subduction zone / Continental crust (>25 km),Holocene
253010,Lamington,Papua New Guinea,Stratovolcano,Eruption Observed,1956 CE,Melanesia and Australia,New Guinea and D'Entrecasteaux Islands,-8.95,148.15,1680,Andesite / Basaltic Andesite,Subduction zone / Continental crust (>25 km),Holocene
253011,Hydrographers Range,Papua New Guinea,Stratovolcano,Evidence Credible,Unknown,Melanesia and Australia,New Guinea and D'Entrecasteaux Islands,-9,148.37,1915,Andesite / Basaltic Andesite,Subduction zone / Continental crust (>25 km),Holocene
253021,Managlase Plateau,Papua New Guinea,Volcanic field,Evidence Credible,Unknown,Melanesia and Australia,New Guinea and D'Entrecasteaux Islands,-9.08,148.33,1342,Trachybasalt / Tephrite Basanite,Subduction zone / Continental crust (>25 km),Holocene
253030,Victory,Papua New Guinea,Stratovolcano,Eruption Observed,1935 CE,Melanesia and Australia,New Guinea and D'Entrecasteaux Islands,-9.2,149.07,1925,Andesite / Basaltic Andesite,Subduction zone / Continental crust (>25 km),Holocene
253031,Sessagara,Papua New Guinea,Pyroclastic cone(s),Evidence Credible,Unknown,Melanesia and Australia,New Guinea and D'Entrecasteaux Islands,-9.48,149.13,370,Trachyandesite / Basaltic Trachyandesite,Subduction zone / Continental crust (>25 km),Holocene
253040,Waiowa,Papua New Guinea,Pyroclastic cone,Eruption Observed,1944 CE,Melanesia and Australia,New Guinea and D'Entrecasteaux Islands,-9.57,149.075,640,Trachyandesite / Basaltic Trachyandesite,Subduction zone / Continental crust (>25 km),Holocene
253041,Goodenough,Papua New Guinea,Volcanic field,Evidence Credible,Unknown,Melanesia and Australia,New Guinea and D'Entrecasteaux Islands,-9.48,150.35,220,Andesite / Basaltic Andesite,Subduction zone / Continental crust (>25 km),Holocene
253050,Iamalele,Papua New Guinea,Lava dome(s),Evidence Credible,Unknown,Melanesia and Australia,New Guinea and D'Entrecasteaux Islands,-9.52,150.53,200,Andesite / Basaltic Andesite,Subduction zone / Continental crust (>25 km),Holocene
253060,Dawson Strait Group,Papua New Guinea,Volcanic field,Eruption Dated,1350 CE,Melanesia and Australia,New Guinea and D'Entrecasteaux Islands,-9.62,150.88,500,Rhyolite,Subduction zone / Continental crust (>25 km),Holocene
254010,Lihir,Papua New Guinea,Compound,Evidence Credible,Unknown,Melanesia and Australia,New Ireland,-3.125,152.642,700,Trachybasalt / Tephrite Basanite,Subduction zone / Crustal thickness unknown,Holocene
254020,Ambitle,Papua New Guinea,Stratovolcano,Eruption Dated,350 BCE,Melanesia and Australia,New Ireland,-4.08,153.65,450,Phono-tephrite /  Tephri-phonolite,Subduction zone / Crustal thickness unknown,Holocene
255000,Tore,Papua New Guinea,Lava cone,Evidence Credible,Unknown,Melanesia and Australia,Bougainville and Solomon Islands,-5.835,154.935,2175,Andesite / Basaltic Andesite,Subduction zone / Crustal thickness unknown,Holocene
255010,Balbi,Papua New Guinea,Stratovolcano,Evidence Credible,Unknown,Melanesia and Australia,Bougainville and Solomon Islands,-5.92,154.98,2715,Andesite / Basaltic Andesite,Subduction zone / Crustal thickness unknown,Holocene
255011,Billy Mitchell,Papua New Guinea,Pyroclastic shield,Eruption Dated,1580 CE,Melanesia and Australia,Bougainville and Solomon Islands,-6.092,155.225,1544,Andesite / Basaltic Andesite,Subduction zone / Crustal thickness unknown,Holocene
255020,Bagana,Papua New Guinea,Lava cone,Eruption Observed,2020 CE,Melanesia and Australia,Bougainville and Solomon Islands,-6.137,155.196,1855,Andesite / Basaltic Andesite,Subduction zone / Crustal thickness unknown,Holocene
255021,Takuan Group,Papua New Guinea,Compound,Evidence Credible,Unknown,Melanesia and Australia,Bougainville and Solomon Islands,-6.442,155.608,2210,Andesite / Basaltic Andesite,Subduction zone / Crustal thickness unknown,Holocene
255030,Loloru,Papua New Guinea,Pyroclastic shield,Eruption Dated,1050 BCE,Melanesia and Australia,Bougainville and Solomon Islands,-6.52,155.62,1887,Andesite / Basaltic Andesite,Subduction zone / Crustal thickness unknown,Holocene
255050,Simbo,Solomon Islands,Stratovolcano(es),Eruption Dated,1910 CE,Melanesia and Australia,Bougainville and Solomon Islands,-8.292,156.52,335,Andesite / Basaltic Andesite,Subduction zone / Crustal thickness unknown,Holocene
255052,Kana Keoki,Solomon Islands,Submarine,Evidence Credible,Unknown,Melanesia and Australia,Bougainville and Solomon Islands,-8.75,157.03,-700,Dacite,Subduction zone / Crustal thickness unknown,Holocene
255053,Coleman Seamount,Solomon Islands,Submarine,Evidence Credible,Unknown,Melanesia and Australia,Bougainville and Solomon Islands,-8.841,157.16,-717,No Data (checked),Subduction zone / Crustal thickness unknown,Holocene
255060,Kavachi,Solomon Islands,Submarine,Eruption Observed,2007 CE,Melanesia and Australia,Bougainville and Solomon Islands,-8.991,157.979,-20,Andesite / Basaltic Andesite,Subduction zone / Crustal thickness unknown,Holocene
255061,Unnamed,Solomon Islands,Submarine(es),Evidence Credible,Unknown,Melanesia and Australia,Bougainville and Solomon Islands,-8.92,158.03,-240,Andesite / Basaltic Andesite,Subduction zone / Crustal thickness unknown,Holocene
255062,Gallego,Solomon Islands,Volcanic field,Evidence Uncertain,Unknown,Melanesia and Australia,Bougainville and Solomon Islands,-9.35,159.73,1000,Andesite / Basaltic Andesite,Subduction zone / Crustal thickness unknown,Holocene
255070,Savo,Solomon Islands,Stratovolcano,Eruption Observed,1847 CE,Melanesia and Australia,Bougainville and Solomon Islands,-9.13,159.82,485,Andesite / Basaltic Andesite,Subduction zone / Crustal thickness unknown,Holocene
256010,Tinakula,Solomon Islands,Stratovolcano,Eruption Observed,2020 CE,Melanesia and Australia,Santa Cruz Islands,-10.386,165.804,796,Andesite / Basaltic Andesite,Subduction zone / Crustal thickness unknown,Holocene
257001,Motlav,Vanuatu,Stratovolcano,Evidence Credible,Unknown,Melanesia and Australia,Vanuatu,-13.67,167.67,411,Basalt / Picro-Basalt,Subduction zone / Intermediate crust (15-25 km),Holocene
257010,Suretamatai,Vanuatu,Complex,Eruption Observed,1966 CE,Melanesia and Australia,Vanuatu,-13.8,167.47,921,Andesite / Basaltic Andesite,Subduction zone / Intermediate crust (15-25 km),Holocene
257020,Gaua,Vanuatu,Stratovolcano,Eruption Observed,2011 CE,Melanesia and Australia,Vanuatu,-14.27,167.5,797,Andesite / Basaltic Andesite,Subduction zone / Intermediate crust (15-25 km),Holocene
257021,Mere Lava,Vanuatu,Stratovolcano,Evidence Credible,Unknown,Melanesia and Australia,Vanuatu,-14.45,168.05,1028,Basalt / Picro-Basalt,Subduction zone / Intermediate crust (15-25 km),Holocene
257030,Ambae,Vanuatu,Shield,Eruption Observed,2018 CE,Melanesia and Australia,Vanuatu,-15.389,167.835,1496,Basalt / Picro-Basalt,Subduction zone / Intermediate crust (15-25 km),Holocene
257040,Ambrym,Vanuatu,Pyroclastic shield,Eruption Observed,2018 CE,Melanesia and Australia,Vanuatu,-16.25,168.12,1334,Basalt / Picro-Basalt,Subduction zone / Intermediate crust (15-25 km),Holocene
257050,Lopevi,Vanuatu,Stratovolcano,Eruption Observed,2007 CE,Melanesia and Australia,Vanuatu,-16.507,168.346,1413,Basalt / Picro-Basalt,Subduction zone / Intermediate crust (15-25 km),Holocene
257060,Epi,Vanuatu,Stratovolcano(es),Eruption Observed,2004 CE,Melanesia and Australia,Vanuatu,-16.68,168.37,833,Basalt / Picro-Basalt,Subduction zone / Intermediate crust (15-25 km),Holocene
257070,Kuwae,Vanuatu,Caldera,Eruption Observed,1974 CE,Melanesia and Australia,Vanuatu,-16.829,168.536,-2,Basalt / Picro-Basalt,Subduction zone / Intermediate crust (15-25 km),Holocene
257080,NE Shepherd Islands,Vanuatu,Stratovolcano(es),Evidence Uncertain,Unknown,Melanesia and Australia,Vanuatu,-16.992,168.592,216,Basalt / Picro-Basalt,Subduction zone / Intermediate crust (15-25 km),Holocene
257081,North Vate,Vanuatu,Stratovolcano(es),Evidence Credible,Unknown,Melanesia and Australia,Vanuatu,-17.47,168.353,594,Basalt / Picro-Basalt,Subduction zone / Intermediate crust (15-25 km),Holocene
257090,Traitor's Head,Vanuatu,Stratovolcano,Eruption Observed,1881 CE,Melanesia and Australia,Vanuatu,-18.754,169.238,817,Basalt / Picro-Basalt,Subduction zone / Intermediate crust (15-25 km),Holocene
257100,Yasur,Vanuatu,Stratovolcano,Eruption Observed,2020 CE,Melanesia and Australia,Vanuatu,-19.532,169.447,361,Andesite / Basaltic Andesite,Subduction zone / Intermediate crust (15-25 km),Holocene
257110,Aneityum,Vanuatu,Stratovolcano(es),Evidence Uncertain,Unknown,Melanesia and Australia,Vanuatu,-20.2,169.78,852,Basalt / Picro-Basalt,Subduction zone / Intermediate crust (15-25 km),Holocene
258001,Eastern Gemini Seamount,France,Submarine,Eruption Observed,1996 CE,Melanesia and Australia,Pacific Ocean (southwestern),-20.98,170.28,-80,Basalt / Picro-Basalt,Rift zone / Oceanic crust (< 15 km),Holocene
258010,Matthew Island,France,Stratovolcano,Eruption Observed,1956 CE,Melanesia and Australia,Pacific Ocean (southwestern),-22.33,171.32,177,Andesite / Basaltic Andesite,Subduction zone / Crustal thickness unknown,Holocene
258020,Hunter Island,France,Stratovolcano,Eruption Observed,1903 CE,Melanesia and Australia,Pacific Ocean (southwestern),-22.4,172.05,297,Andesite / Basaltic Andesite,Subduction zone / Crustal thickness unknown,Holocene
259010,Newer Volcanics Province,Australia,Shield(s),Eruption Dated,2900 BCE,Melanesia and Australia,Australia,-37.77,142.5,1011,Trachybasalt / Tephrite Basanite,Intraplate / Continental crust (>25 km),Holocene
260001,Narcondum,India,Stratovolcano,Evidence Credible,Unknown,Indonesia,Andaman Islands,13.43,94.28,710,Andesite / Basaltic Andesite,Subduction zone / Continental crust (>25 km),Holocene
260010,Barren Island,India,Stratovolcano,Eruption Observed,2020 CE,Indonesia,Andaman Islands,12.278,93.858,354,Basalt / Picro-Basalt,Subduction zone / Continental crust (>25 km),Holocene
261020,Seulawah Agam,Indonesia,Stratovolcano,Eruption Observed,1839 CE,Indonesia,Sumatra,5.448,95.658,1810,Andesite / Basaltic Andesite,Subduction zone / Continental crust (>25 km),Holocene
261030,Peuet Sague,Indonesia,Complex,Eruption Observed,2000 CE,Indonesia,Sumatra,4.903,96.289,2785,Andesite / Basaltic Andesite,Subduction zone / Continental crust (>25 km),Holocene
261050,"Telong, Bur ni",Indonesia,Stratovolcano,Eruption Observed,1937 CE,Indonesia,Sumatra,4.769,96.821,2617,Andesite / Basaltic Andesite,Subduction zone / Continental crust (>25 km),Holocene
261070,Singkut,Indonesia,Caldera(s),Eruption Observed,1881 CE,Indonesia,Sumatra,3.248,98.501,2181,Andesite / Basaltic Andesite,Subduction zone / Continental crust (>25 km),Holocene
261080,Sinabung,Indonesia,Stratovolcano,Eruption Observed,2019 CE,Indonesia,Sumatra,3.17,98.392,2460,Andesite / Basaltic Andesite,Subduction zone / Continental crust (>25 km),Holocene
261090,Toba,Indonesia,Caldera,Evidence Credible,Unknown,Indonesia,Sumatra,2.58,98.83,2157,Dacite,Subduction zone / Continental crust (>25 km),Holocene
261110,Sibualbuali,Indonesia,Stratovolcano,Evidence Uncertain,Unknown,Indonesia,Sumatra,1.556,99.255,1819,Dacite,Subduction zone / Continental crust (>25 km),Holocene
261111,Lubukraya,Indonesia,Stratovolcano,Evidence Uncertain,Unknown,Indonesia,Sumatra,1.478,99.209,1862,Andesite / Basaltic Andesite,Subduction zone / Continental crust (>25 km),Holocene
261120,Sorikmarapi,Indonesia,Stratovolcano,Eruption Observed,1986 CE,Indonesia,Sumatra,0.686,99.539,2145,Andesite / Basaltic Andesite,Subduction zone / Continental crust (>25 km),Holocene
261121,Malintang,Indonesia,Stratovolcano,Evidence Credible,Unknown,Indonesia,Sumatra,0.47,99.67,1983,Andesite / Basaltic Andesite,Subduction zone / Continental crust (>25 km),Holocene
261130,Talakmau,Indonesia,Complex,Evidence Credible,Unknown,Indonesia,Sumatra,0.079,99.98,2919,Andesite / Basaltic Andesite,Subduction zone / Continental crust (>25 km),Holocene
261131,Sarik-Gajah,Indonesia,Pyroclastic cone(s),Evidence Uncertain,Unknown,Indonesia,Sumatra,0.074,100.189,737,Andesite / Basaltic Andesite,Subduction zone / Continental crust (>25 km),Holocene
261140,Marapi,Indonesia,Complex,Eruption Observed,2018 CE,Indonesia,Sumatra,-0.38,100.474,2885,Andesite / Basaltic Andesite,Subduction zone / Continental crust (>25 km),Holocene
261150,Tandikat-Singgalang,Indonesia,Stratovolcano(es),Eruption Observed,1924 CE,Indonesia,Sumatra,-0.39,100.331,2854,Andesite / Basaltic Andesite,Subduction zone / Continental crust (>25 km),Holocene
261160,Talang,Indonesia,Stratovolcano,Eruption Observed,2007 CE,Indonesia,Sumatra,-0.979,100.681,2575,Andesite / Basaltic Andesite,Subduction zone / Continental crust (>25 km),Holocene
261170,Kerinci,Indonesia,Stratovolcano,Eruption Observed,2020 CE,Indonesia,Sumatra,-1.697,101.264,3800,Andesite / Basaltic Andesite,Subduction zone / Continental crust (>25 km),Holocene
261180,Sumbing,Indonesia,Stratovolcano,Eruption Observed,1921 CE,Indonesia,Sumatra,-2.414,101.728,2507,Andesite / Basaltic Andesite,Subduction zone / Continental crust (>25 km),Holocene
261200,Hululais,Indonesia,Compound,Unrest / Holocene,Unknown,Indonesia,Sumatra,-3.247,102.239,2122,Basalt / Picro-Basalt,Subduction zone / Continental crust (>25 km),Holocene
261210,"Daun, Bukit",Indonesia,Stratovolcano(es),Unrest / Holocene,Unknown,Indonesia,Sumatra,-3.38,102.37,2467,Basalt / Picro-Basalt,Subduction zone / Continental crust (>25 km),Holocene
261220,Kaba,Indonesia,Stratovolcano,Eruption Observed,2000 CE,Indonesia,Sumatra,-3.522,102.615,1940,Andesite / Basaltic Andesite,Subduction zone / Continental crust (>25 km),Holocene
261230,Dempo,Indonesia,Stratovolcano(es),Eruption Observed,2017 CE,Indonesia,Sumatra,-4.016,103.121,3142,Andesite / Basaltic Andesite,Subduction zone / Continental crust (>25 km),Holocene
261231,Patah,Indonesia,Stratovolcano?,Unrest / Holocene,Unknown,Indonesia,Sumatra,-4.257,103.306,2836,No Data (checked),Subduction zone / Continental crust (>25 km),Holocene
261251,Ranau,Indonesia,Caldera,Evidence Uncertain,Unknown,Indonesia,Sumatra,-4.871,103.925,1854,Dacite,Subduction zone / Continental crust (>25 km),Holocene
261260,Sekincau Belirang,Indonesia,Caldera(s),Unrest / Holocene,Unknown,Indonesia,Sumatra,-5.107,104.317,1717,Andesite / Basaltic Andesite,Subduction zone / Continental crust (>25 km),Holocene
261270,Suoh,Indonesia,Caldera(s),Eruption Observed,1933 CE,Indonesia,Sumatra,-5.25,104.27,1000,No Data (checked),Subduction zone / Continental crust (>25 km),Holocene
261280,Hulubelu,Indonesia,Caldera,Unrest / Holocene,Unknown,Indonesia,Sumatra,-5.334,104.59,849,Andesite / Basaltic Andesite,Subduction zone / Continental crust (>25 km),Holocene
261290,Rajabasa,Indonesia,Stratovolcano,Unrest / Holocene,Unknown,Indonesia,Sumatra,-5.78,105.625,1281,Andesite / Basaltic Andesite,Subduction zone / Continental crust (>25 km),Holocene
262000,Krakatau,Indonesia,Caldera,Eruption Observed,2020 CE,Indonesia,Krakatau,-6.102,105.423,155,Andesite / Basaltic Andesite,Subduction zone / Continental crust (>25 km),Holocene
263010,Pulosari,Indonesia,Stratovolcano,Evidence Credible,Unknown,Indonesia,Java,-6.343,105.978,1324,Andesite / Basaltic Andesite,Subduction zone / Continental crust (>25 km),Holocene
263020,Karang,Indonesia,Stratovolcano,Evidence Uncertain,Unknown,Indonesia,Java,-6.268,106.05,1768,Andesite / Basaltic Andesite,Subduction zone / Continental crust (>25 km),Holocene
263040,Perbakti-Gagak,Indonesia,Stratovolcano(es),Eruption Observed,1939 CE,Indonesia,Java,-6.75,106.7,1699,Andesite / Basaltic Andesite,Subduction zone / Continental crust (>25 km),Holocene
263050,Salak,Indonesia,Stratovolcano,Eruption Observed,1938 CE,Indonesia,Java,-6.72,106.73,2211,Andesite / Basaltic Andesite,Subduction zone / Continental crust (>25 km),Holocene
263060,Gede-Pangrango,Indonesia,Stratovolcano(es),Eruption Observed,1957 CE,Indonesia,Java,-6.77,106.965,3008,Andesite / Basaltic Andesite,Subduction zone / Continental crust (>25 km),Holocene
263070,Patuha,Indonesia,Stratovolcano,Evidence Credible,Unknown,Indonesia,Java,-7.162,107.4,2422,Andesite / Basaltic Andesite,Subduction zone / Continental crust (>25 km),Holocene
263090,Tangkuban Parahu,Indonesia,Stratovolcano,Eruption Observed,2019 CE,Indonesia,Java,-6.77,107.6,2084,Andesite / Basaltic Andesite,Subduction zone / Continental crust (>25 km),Holocene
263100,Papandayan,Indonesia,Stratovolcano(es),Eruption Observed,2002 CE,Indonesia,Java,-7.32,107.73,2665,Andesite / Basaltic Andesite,Subduction zone / Continental crust (>25 km),Holocene
263110,Kendang,Indonesia,Stratovolcano,Evidence Credible,Unknown,Indonesia,Java,-7.245,107.709,2594,Andesite / Basaltic Andesite,Subduction zone / Continental crust (>25 km),Holocene
263130,Guntur,Indonesia,Complex,Eruption Observed,1847 CE,Indonesia,Java,-7.143,107.84,2249,Andesite / Basaltic Andesite,Subduction zone / Continental crust (>25 km),Holocene
263131,Tampomas,Indonesia,Stratovolcano,Evidence Credible,Unknown,Indonesia,Java,-6.77,107.95,1684,Andesite / Basaltic Andesite,Subduction zone / Continental crust (>25 km),Holocene
263140,Galunggung,Indonesia,Stratovolcano,Eruption Observed,1984 CE,Indonesia,Java,-7.25,108.058,2168,Basalt / Picro-Basalt,Subduction zone / Continental crust (>25 km),Holocene
263150,Talagabodas,Indonesia,Stratovolcano,Unrest / Holocene,Unknown,Indonesia,Java,-7.208,108.07,2201,Basalt / Picro-Basalt,Subduction zone / Continental crust (>25 km),Holocene
263170,Cereme,Indonesia,Stratovolcano,Eruption Observed,1951 CE,Indonesia,Java,-6.895,108.408,3039,Andesite / Basaltic Andesite,Subduction zone / Continental crust (>25 km),Holocene
263180,Slamet,Indonesia,Stratovolcano,Eruption Observed,2014 CE,Indonesia,Java,-7.242,109.208,3428,Basalt / Picro-Basalt,Subduction zone / Continental crust (>25 km),Holocene
263200,Dieng Volcanic Complex,Indonesia,Complex,Eruption Observed,2018 CE,Indonesia,Java,-7.2,109.879,2565,Andesite / Basaltic Andesite,Subduction zone / Continental crust (>25 km),Holocene
263210,Sundoro,Indonesia,Stratovolcano,Eruption Observed,1971 CE,Indonesia,Java,-7.3,109.992,3136,Andesite / Basaltic Andesite,Subduction zone / Continental crust (>25 km),Holocene
263220,Sumbing,Indonesia,Stratovolcano,Eruption Observed,1730 CE,Indonesia,Java,-7.384,110.07,3371,Andesite / Basaltic Andesite,Subduction zone / Continental crust (>25 km),Holocene
263230,Ungaran,Indonesia,Stratovolcano,Evidence Credible,Unknown,Indonesia,Java,-7.18,110.33,2050,Trachyandesite / Basaltic Trachyandesite,Subduction zone / Continental crust (>25 km),Holocene
263231,Telomoyo,Indonesia,Stratovolcano,Evidence Credible,Unknown,Indonesia,Java,-7.362,110.4,1864,Andesite / Basaltic Andesite,Subduction zone / Continental crust (>25 km),Holocene
263240,Merbabu,Indonesia,Stratovolcano,Eruption Observed,1797 CE,Indonesia,Java,-7.454,110.44,3118,Basalt / Picro-Basalt,Subduction zone / Continental crust (>25 km),Holocene
263250,Merapi,Indonesia,Stratovolcano,Eruption Observed,2020 CE,Indonesia,Java,-7.54,110.446,2910,Andesite / Basaltic Andesite,Subduction zone / Continental crust (>25 km),Holocene
263251,Muria,Indonesia,Stratovolcano,Eruption Dated,160 BCE,Indonesia,Java,-6.62,110.88,1625,Trachybasalt / Tephrite Basanite,Subduction zone / Continental crust (>25 km),Holocene
263260,Lawu,Indonesia,Stratovolcano,Eruption Observed,1885 CE,Indonesia,Java,-7.625,111.192,3265,Andesite / Basaltic Andesite,Subduction zone / Continental crust (>25 km),Holocene
263270,Wilis,Indonesia,Stratovolcano,Evidence Credible,Unknown,Indonesia,Java,-7.808,111.758,2563,Andesite / Basaltic Andesite,Subduction zone / Continental crust (>25 km),Holocene
263280,Kelut,Indonesia,Stratovolcano,Eruption Observed,2014 CE,Indonesia,Java,-7.93,112.308,1731,Andesite / Basaltic Andesite,Subduction zone / Continental crust (>25 km),Holocene
263281,Kawi-Butak,Indonesia,Stratovolcano(es),Evidence Credible,Unknown,Indonesia,Java,-7.92,112.45,2651,No Data (checked),Subduction zone / Continental crust (>25 km),Holocene
263290,Arjuno-Welirang,Indonesia,Stratovolcano,Eruption Observed,1952 CE,Indonesia,Java,-7.733,112.575,3339,Andesite / Basaltic Andesite,Subduction zone / Continental crust (>25 km),Holocene
263291,Penanggungan,Indonesia,Stratovolcano,Evidence Credible,Unknown,Indonesia,Java,-7.616,112.62,1631,Andesite / Basaltic Andesite,Subduction zone / Continental crust (>25 km),Holocene
263300,Semeru,Indonesia,Stratovolcano,Eruption Observed,2020 CE,Indonesia,Java,-8.108,112.922,3657,Andesite / Basaltic Andesite,Subduction zone / Continental crust (>25 km),Holocene
263310,Tengger Caldera,Indonesia,Stratovolcano(es),Eruption Observed,2019 CE,Indonesia,Java,-7.942,112.95,2329,Trachyandesite / Basaltic Trachyandesite,Subduction zone / Continental crust (>25 km),Holocene
263320,Lamongan,Indonesia,Stratovolcano,Eruption Observed,1898 CE,Indonesia,Java,-7.981,113.341,1641,Basalt / Picro-Basalt,Subduction zone / Continental crust (>25 km),Holocene
263330,Iyang-Argapura,Indonesia,Complex,Evidence Credible,Unknown,Indonesia,Java,-7.97,113.57,3088,Andesite / Basaltic Andesite,Subduction zone / Continental crust (>25 km),Holocene
263340,Raung,Indonesia,Stratovolcano,Eruption Observed,2015 CE,Indonesia,Java,-8.119,114.056,3260,Andesite / Basaltic Andesite,Subduction zone / Continental crust (>25 km),Holocene
263350,Ijen,Indonesia,Stratovolcano(es),Eruption Observed,1999 CE,Indonesia,Java,-8.058,114.242,2769,Andesite / Basaltic Andesite,Subduction zone / Continental crust (>25 km),Holocene
263351,Baluran,Indonesia,Stratovolcano,Evidence Uncertain,Unknown,Indonesia,Java,-7.85,114.37,1247,Andesite / Basaltic Andesite,Subduction zone / Continental crust (>25 km),Holocene
264001,Buyan-Bratan,Indonesia,Caldera,Evidence Credible,Unknown,Indonesia,Lesser Sunda Islands,-8.283,115.133,2244,Andesite / Basaltic Andesite,Subduction zone / Continental crust (>25 km),Holocene
264010,Batur,Indonesia,Caldera,Eruption Observed,2000 CE,Indonesia,Lesser Sunda Islands,-8.242,115.375,1717,Andesite / Basaltic Andesite,Subduction zone / Continental crust (>25 km),Holocene
264020,Agung,Indonesia,Stratovolcano,Eruption Observed,2019 CE,Indonesia,Lesser Sunda Islands,-8.343,115.508,2997,Andesite / Basaltic Andesite,Subduction zone / Continental crust (>25 km),Holocene
264030,Rinjani,Indonesia,Stratovolcano,Eruption Observed,2016 CE,Indonesia,Lesser Sunda Islands,-8.42,116.47,3726,Andesite / Basaltic Andesite,Subduction zone / Continental crust (>25 km),Holocene
264040,Tambora,Indonesia,Stratovolcano,Eruption Observed,1967 CE,Indonesia,Lesser Sunda Islands,-8.25,118,2850,Trachybasalt / Tephrite Basanite,Subduction zone / Continental crust (>25 km),Holocene
264050,Sangeang Api,Indonesia,Complex,Eruption Observed,2020 CE,Indonesia,Lesser Sunda Islands,-8.2,119.07,1912,Trachybasalt / Tephrite Basanite,Subduction zone / Continental crust (>25 km),Holocene
264060,"Sano, Wai",Indonesia,Caldera,Evidence Credible,Unknown,Indonesia,Lesser Sunda Islands,-8.724,119.986,1319,Dacite,Subduction zone / Continental crust (>25 km),Holocene
264071,Ranakah,Indonesia,Lava dome(s),Eruption Observed,1991 CE,Indonesia,Lesser Sunda Islands,-8.62,120.52,2350,Andesite / Basaltic Andesite,Subduction zone / Continental crust (>25 km),Holocene
264080,Inierie,Indonesia,Stratovolcano,Eruption Dated,8050 BCE,Indonesia,Lesser Sunda Islands,-8.875,120.95,2245,Andesite / Basaltic Andesite,Subduction zone / Crustal thickness unknown,Holocene
264090,Inielika,Indonesia,Complex,Eruption Observed,2001 CE,Indonesia,Lesser Sunda Islands,-8.73,120.98,1559,Andesite / Basaltic Andesite,Subduction zone / Crustal thickness unknown,Holocene
264100,Ebulobo,Indonesia,Stratovolcano,Eruption Observed,1969 CE,Indonesia,Lesser Sunda Islands,-8.817,121.191,2096,Andesite / Basaltic Andesite,Subduction zone / Crustal thickness unknown,Holocene
264110,Iya,Indonesia,Stratovolcano,Eruption Observed,1969 CE,Indonesia,Lesser Sunda Islands,-8.891,121.641,618,Basalt / Picro-Basalt,Subduction zone / Crustal thickness unknown,Holocene
264140,Kelimutu,Indonesia,Complex,Eruption Observed,1968 CE,Indonesia,Lesser Sunda Islands,-8.77,121.82,1639,Andesite / Basaltic Andesite,Subduction zone / Crustal thickness unknown,Holocene
264150,Paluweh,Indonesia,Stratovolcano,Eruption Observed,2013 CE,Indonesia,Lesser Sunda Islands,-8.32,121.708,875,Andesite / Basaltic Andesite,Subduction zone / Crustal thickness unknown,Holocene
264160,Egon,Indonesia,Stratovolcano,Eruption Observed,2008 CE,Indonesia,Lesser Sunda Islands,-8.676,122.455,1661,Andesite / Basaltic Andesite,Subduction zone / Crustal thickness unknown,Holocene
264170,Ilimuda,Indonesia,Stratovolcano,Unrest / Holocene,Unknown,Indonesia,Lesser Sunda Islands,-8.479,122.761,881,Andesite / Basaltic Andesite,Subduction zone / Crustal thickness unknown,Holocene
264180,Lewotobi,Indonesia,Stratovolcano(es),Eruption Observed,2003 CE,Indonesia,Lesser Sunda Islands,-8.542,122.775,1703,Andesite / Basaltic Andesite,Subduction zone / Crustal thickness unknown,Holocene
264200,Leroboleng,Indonesia,Complex,Eruption Observed,2003 CE,Indonesia,Lesser Sunda Islands,-8.365,122.833,1095,Andesite / Basaltic Andesite,Subduction zone / Crustal thickness unknown,Holocene
264220,Iliboleng,Indonesia,Stratovolcano,Eruption Observed,1993 CE,Indonesia,Lesser Sunda Islands,-8.342,123.258,1659,Basalt / Picro-Basalt,Subduction zone / Crustal thickness unknown,Holocene
264230,Lewotolo,Indonesia,Stratovolcano,Eruption Observed,2012 CE,Indonesia,Lesser Sunda Islands,-8.272,123.505,1423,Andesite / Basaltic Andesite,Subduction zone / Crustal thickness unknown,Holocene
264240,Ililabalekan,Indonesia,Stratovolcano,Unrest / Holocene,Unknown,Indonesia,Lesser Sunda Islands,-8.55,123.38,1018,Basalt / Picro-Basalt,Subduction zone / Crustal thickness unknown,Holocene
264250,Iliwerung,Indonesia,Complex,Eruption Observed,2013 CE,Indonesia,Lesser Sunda Islands,-8.53,123.57,1018,Basalt / Picro-Basalt,Subduction zone / Crustal thickness unknown,Holocene
264260,"Tara, Batu",Indonesia,Stratovolcano,Eruption Observed,2015 CE,Indonesia,Lesser Sunda Islands,-7.791,123.585,633,Trachybasalt / Tephrite Basanite,Subduction zone / Oceanic crust (< 15 km),Holocene
264270,Sirung,Indonesia,Complex,Eruption Observed,2015 CE,Indonesia,Lesser Sunda Islands,-8.508,124.13,862,Andesite / Basaltic Andesite,Subduction zone / Crustal thickness unknown,Holocene
265030,Gunungapi Wetar,Indonesia,Stratovolcano,Eruption Observed,1699 CE,Indonesia,Banda Sea,-6.642,126.65,282,Andesite / Basaltic Andesite,Subduction zone / Oceanic crust (< 15 km),Holocene
265040,Wurlali,Indonesia,Stratovolcano,Eruption Observed,1892 CE,Indonesia,Banda Sea,-7.125,128.675,868,Andesite / Basaltic Andesite,Subduction zone / Oceanic crust (< 15 km),Holocene
265050,Teon,Indonesia,Stratovolcano,Eruption Observed,1904 CE,Indonesia,Banda Sea,-6.976,129.144,728,Andesite / Basaltic Andesite,Subduction zone / Oceanic crust (< 15 km),Holocene
265060,Nila,Indonesia,Stratovolcano,Eruption Observed,1968 CE,Indonesia,Banda Sea,-6.73,129.5,781,Andesite / Basaltic Andesite,Subduction zone / Oceanic crust (< 15 km),Holocene
265070,Serua,Indonesia,Stratovolcano,Eruption Observed,1921 CE,Indonesia,Banda Sea,-6.312,130.017,608,Andesite / Basaltic Andesite,Subduction zone / Oceanic crust (< 15 km),Holocene
265080,Manuk,Indonesia,Stratovolcano,Unrest / Holocene,Unknown,Indonesia,Banda Sea,-5.543,130.303,257,Andesite / Basaltic Andesite,Subduction zone / Oceanic crust (< 15 km),Holocene
265090,Banda Api,Indonesia,Caldera,Eruption Observed,1988 CE,Indonesia,Banda Sea,-4.523,129.881,596,Dacite,Subduction zone / Oceanic crust (< 15 km),Holocene
266010,Colo,Indonesia,Stratovolcano,Eruption Observed,1983 CE,Indonesia,Sulawesi,-0.162,121.601,404,Trachyandesite / Basaltic Trachyandesite,Subduction zone / Continental crust (>25 km),Holocene
266020,Ambang,Indonesia,Complex,Eruption Observed,2005 CE,Indonesia,Sulawesi,0.75,124.42,1795,Andesite / Basaltic Andesite,Subduction zone / Continental crust (>25 km),Holocene
266030,Soputan,Indonesia,Stratovolcano,Eruption Observed,2020 CE,Indonesia,Sulawesi,1.112,124.737,1785,Andesite / Basaltic Andesite,Subduction zone / Continental crust (>25 km),Holocene
266040,Riendengan-Sempu,Indonesia,Caldera,Unrest / Holocene,Unknown,Indonesia,Sulawesi,1.13,124.758,1549,No Data (checked),Subduction zone / Continental crust (>25 km),Holocene
266070,Tondano Caldera,Indonesia,Caldera,Unrest / Holocene,Unknown,Indonesia,Sulawesi,1.23,124.83,1202,Andesite / Basaltic Andesite,Subduction zone / Continental crust (>25 km),Holocene
266100,Lokon-Empung,Indonesia,Stratovolcano(es),Eruption Observed,2015 CE,Indonesia,Sulawesi,1.358,124.792,1580,Basalt / Picro-Basalt,Subduction zone / Continental crust (>25 km),Holocene
266110,Mahawu,Indonesia,Stratovolcano,Eruption Observed,1977 CE,Indonesia,Sulawesi,1.352,124.865,1299,Andesite / Basaltic Andesite,Subduction zone / Continental crust (>25 km),Holocene
266120,Klabat,Indonesia,Stratovolcano,Unrest / Holocene,Unknown,Indonesia,Sulawesi,1.454,125.031,1968,Andesite / Basaltic Andesite,Subduction zone / Continental crust (>25 km),Holocene
266130,Tangkoko-Duasudara,Indonesia,Stratovolcano,Eruption Observed,1880 CE,Indonesia,Sulawesi,1.518,125.185,1334,Andesite / Basaltic Andesite,Subduction zone / Continental crust (>25 km),Holocene
267010,Ruang,Indonesia,Stratovolcano,Eruption Observed,2002 CE,Indonesia,Sangihe Islands,2.3,125.37,725,Andesite / Basaltic Andesite,Subduction zone / Oceanic crust (< 15 km),Holocene
267020,Karangetang,Indonesia,Stratovolcano,Eruption Observed,2020 CE,Indonesia,Sangihe Islands,2.781,125.407,1797,Andesite / Basaltic Andesite,Subduction zone / Oceanic crust (< 15 km),Holocene
267030,Banua Wuhu,Indonesia,Submarine,Eruption Observed,1919 CE,Indonesia,Sangihe Islands,3.138,125.491,-5,Andesite / Basaltic Andesite,Subduction zone / Oceanic crust (< 15 km),Holocene
267040,Awu,Indonesia,Stratovolcano,Eruption Observed,2004 CE,Indonesia,Sangihe Islands,3.689,125.447,1318,Andesite / Basaltic Andesite,Subduction zone / Oceanic crust (< 15 km),Holocene
268001,Tarakan,Indonesia,Pyroclastic cone(s),Evidence Credible,Unknown,Indonesia,Halmahera,1.83,127.83,318,Basalt / Picro-Basalt,Subduction zone / Oceanic crust (< 15 km),Holocene
268010,Dukono,Indonesia,Complex,Eruption Observed,2020 CE,Indonesia,Halmahera,1.693,127.894,1229,Andesite / Basaltic Andesite,Subduction zone / Oceanic crust (< 15 km),Holocene
268020,Tobaru,Indonesia,Stratovolcano,Evidence Credible,Unknown,Indonesia,Halmahera,1.63,127.67,1035,Andesite / Basaltic Andesite,Subduction zone / Oceanic crust (< 15 km),Holocene
268030,Ibu,Indonesia,Stratovolcano,Eruption Observed,2020 CE,Indonesia,Halmahera,1.488,127.63,1325,Andesite / Basaltic Andesite,Subduction zone / Oceanic crust (< 15 km),Holocene
268040,Gamkonora,Indonesia,Stratovolcano,Eruption Observed,2007 CE,Indonesia,Halmahera,1.38,127.53,1635,Andesite / Basaltic Andesite,Subduction zone / Oceanic crust (< 15 km),Holocene
268050,Todoko-Ranu,Indonesia,Caldera(s),Evidence Credible,Unknown,Indonesia,Halmahera,1.25,127.47,979,Andesite / Basaltic Andesite,Subduction zone / Oceanic crust (< 15 km),Holocene
268051,Jailolo,Indonesia,Stratovolcano,Evidence Credible,Unknown,Indonesia,Halmahera,1.08,127.439,993,Andesite / Basaltic Andesite,Subduction zone / Oceanic crust (< 15 km),Holocene
268052,Hiri,Indonesia,Stratovolcano,Evidence Credible,Unknown,Indonesia,Halmahera,0.9,127.32,630,Basalt / Picro-Basalt,Subduction zone / Oceanic crust (< 15 km),Holocene
268060,Gamalama,Indonesia,Stratovolcano(es),Eruption Observed,2018 CE,Indonesia,Halmahera,0.8,127.33,1715,Andesite / Basaltic Andesite,Subduction zone / Oceanic crust (< 15 km),Holocene
268061,Tidore,Indonesia,Stratovolcano,Evidence Credible,Unknown,Indonesia,Halmahera,0.658,127.4,1730,Andesite / Basaltic Andesite,Subduction zone / Oceanic crust (< 15 km),Holocene
268062,Mare,Indonesia,Stratovolcano,Evidence Credible,Unknown,Indonesia,Halmahera,0.57,127.4,308,Andesite / Basaltic Andesite,Subduction zone / Oceanic crust (< 15 km),Holocene
268063,Moti,Indonesia,Stratovolcano,Evidence Credible,Unknown,Indonesia,Halmahera,0.454,127.411,927,Andesite / Basaltic Andesite,Subduction zone / Oceanic crust (< 15 km),Holocene
268070,Makian,Indonesia,Stratovolcano,Eruption Observed,1988 CE,Indonesia,Halmahera,0.32,127.4,1357,Andesite / Basaltic Andesite,Subduction zone / Oceanic crust (< 15 km),Holocene
268071,Tigalalu,Indonesia,Stratovolcano,Evidence Credible,Unknown,Indonesia,Halmahera,0.07,127.42,422,Andesite / Basaltic Andesite,Subduction zone / Oceanic crust (< 15 km),Holocene
268072,Amasing,Indonesia,Stratovolcano(es),Evidence Credible,Unknown,Indonesia,Halmahera,-0.53,127.48,1030,Andesite / Basaltic Andesite,Subduction zone / Oceanic crust (< 15 km),Holocene
268073,Bibinoi,Indonesia,Stratovolcano(es),Evidence Credible,Unknown,Indonesia,Halmahera,-0.761,127.725,932,Andesite / Basaltic Andesite,Subduction zone / Oceanic crust (< 15 km),Holocene
271010,Balut,Philippines,Stratovolcano,Unrest / Holocene,Unknown,Philippines and SE Asia,Mindanao,5.4,125.375,862,Andesite / Basaltic Andesite,Subduction zone / Continental crust (>25 km),Holocene
271011,Parker,Philippines,Stratovolcano,Eruption Observed,1641 CE,Philippines and SE Asia,Mindanao,6.113,124.892,1824,Andesite / Basaltic Andesite,Subduction zone / Continental crust (>25 km),Holocene
271020,Matutum,Philippines,Stratovolcano,Eruption Dated,1290 CE,Philippines and SE Asia,Mindanao,6.37,125.07,2286,Andesite / Basaltic Andesite,Subduction zone / Continental crust (>25 km),Holocene
271030,Apo,Philippines,Stratovolcano,Unrest / Holocene,Unknown,Philippines and SE Asia,Mindanao,6.989,125.269,2938,Andesite / Basaltic Andesite,Subduction zone / Continental crust (>25 km),Holocene
271031,Leonard Range,Philippines,Stratovolcano,Eruption Dated,120 CE,Philippines and SE Asia,Mindanao,7.382,126.047,1080,Andesite / Basaltic Andesite,Subduction zone / Continental crust (>25 km),Holocene
271040,Makaturing,Philippines,Stratovolcano,Eruption Observed,1882 CE,Philippines and SE Asia,Mindanao,7.644,124.317,1818,Basalt / Picro-Basalt,Subduction zone / Continental crust (>25 km),Holocene
271060,Ragang,Philippines,Stratovolcano,Eruption Observed,1916 CE,Philippines and SE Asia,Mindanao,7.691,124.507,2790,Basalt / Picro-Basalt,Subduction zone / Continental crust (>25 km),Holocene
271061,Kalatungan,Philippines,Stratovolcano,Evidence Uncertain,Unknown,Philippines and SE Asia,Mindanao,7.95,124.8,2824,Basalt / Picro-Basalt,Subduction zone / Continental crust (>25 km),Holocene
271070,Musuan,Philippines,Lava dome,Evidence Uncertain,Unknown,Philippines and SE Asia,Mindanao,7.877,125.068,646,Andesite / Basaltic Andesite,Subduction zone / Continental crust (>25 km),Holocene
271071,Malindang,Philippines,Stratovolcano,Evidence Credible,Unknown,Philippines and SE Asia,Mindanao,8.22,123.63,2404,Basalt / Picro-Basalt,Subduction zone / Continental crust (>25 km),Holocene
271080,Camiguin,Philippines,Stratovolcano(es),Eruption Observed,1953 CE,Philippines and SE Asia,Mindanao,9.203,124.673,1552,Andesite / Basaltic Andesite,Subduction zone / Continental crust (>25 km),Holocene
272010,Cuernos de Negros,Philippines,Complex,Unrest / Holocene,Unknown,Philippines and SE Asia,Central Philippines,9.25,123.17,1862,Andesite / Basaltic Andesite,Subduction zone / Continental crust (>25 km),Holocene
272020,Kanlaon,Philippines,Stratovolcano,Eruption Observed,2017 CE,Philippines and SE Asia,Central Philippines,10.412,123.132,2435,Andesite / Basaltic Andesite,Subduction zone / Continental crust (>25 km),Holocene
272030,Mandalagan,Philippines,Complex,Unrest / Holocene,Unknown,Philippines and SE Asia,Central Philippines,10.65,123.25,1885,Andesite / Basaltic Andesite,Subduction zone / Continental crust (>25 km),Holocene
272040,Silay,Philippines,Stratovolcano,Unrest / Holocene,Unknown,Philippines and SE Asia,Central Philippines,10.77,123.23,1510,Andesite / Basaltic Andesite,Subduction zone / Continental crust (>25 km),Holocene
272050,Cabalan,Philippines,Stratovolcano,Eruption Dated,1820 CE,Philippines and SE Asia,Central Philippines,10.285,125.218,912,Andesite / Basaltic Andesite,Subduction zone / Continental crust (>25 km),Holocene
272070,Mahagnao,Philippines,Stratovolcano,Unrest / Holocene,Unknown,Philippines and SE Asia,Central Philippines,10.882,124.888,860,Andesite / Basaltic Andesite,Subduction zone / Continental crust (>25 km),Holocene
272080,Biliran,Philippines,Compound,Eruption Observed,1939 CE,Philippines and SE Asia,Central Philippines,11.523,124.535,1301,Andesite / Basaltic Andesite,Subduction zone / Continental crust (>25 km),Holocene
273010,Bulusan,Philippines,Stratovolcano(es),Eruption Observed,2017 CE,Philippines and SE Asia,Luzon,12.769,124.056,1535,Andesite / Basaltic Andesite,Subduction zone / Continental crust (>25 km),Holocene
273020,Pocdol Mountains,Philippines,Compound,Unrest / Holocene,Unknown,Philippines and SE Asia,Luzon,13.05,123.958,1102,Andesite / Basaltic Andesite,Subduction zone / Continental crust (>25 km),Holocene
273030,Mayon,Philippines,Stratovolcano,Eruption Observed,2019 CE,Philippines and SE Asia,Luzon,13.257,123.685,2462,Andesite / Basaltic Andesite,Subduction zone / Continental crust (>25 km),Holocene
273031,Masaraga,Philippines,Stratovolcano,Evidence Credible,Unknown,Philippines and SE Asia,Luzon,13.32,123.6,1328,Andesite / Basaltic Andesite,Subduction zone / Continental crust (>25 km),Holocene
273041,Iriga,Philippines,Stratovolcano,Evidence Credible,Unknown,Philippines and SE Asia,Luzon,13.458,123.451,1138,Andesite / Basaltic Andesite,Subduction zone / Continental crust (>25 km),Holocene
273042,Isarog,Philippines,Stratovolcano,Eruption Dated,3500 BCE,Philippines and SE Asia,Luzon,13.658,123.38,1966,Andesite / Basaltic Andesite,Subduction zone / Continental crust (>25 km),Holocene
273044,Malindig,Philippines,Stratovolcano,Evidence Credible,Unknown,Philippines and SE Asia,Luzon,13.24,122.018,1157,Andesite / Basaltic Andesite,Subduction zone / Continental crust (>25 km),Holocene
273050,Banahaw,Philippines,Complex,Evidence Credible,Unknown,Philippines and SE Asia,Luzon,14.07,121.48,2158,Andesite / Basaltic Andesite,Subduction zone / Continental crust (>25 km),Holocene
273060,San Pablo Volcanic Field,Philippines,Stratovolcano,Eruption Dated,1350 CE,Philippines and SE Asia,Luzon,14.12,121.3,1090,Trachyandesite / Basaltic Trachyandesite,Subduction zone / Continental crust (>25 km),Holocene
273070,Taal,Philippines,Caldera,Eruption Observed,2020 CE,Philippines and SE Asia,Luzon,14.002,120.993,311,Andesite / Basaltic Andesite,Subduction zone / Continental crust (>25 km),Holocene
273080,Laguna Caldera,Philippines,Caldera,Unrest / Holocene,Unknown,Philippines and SE Asia,Luzon,14.42,121.27,743,Andesite / Basaltic Andesite,Subduction zone / Continental crust (>25 km),Holocene
273081,Mariveles,Philippines,Stratovolcano,Eruption Dated,2050 BCE,Philippines and SE Asia,Luzon,14.527,120.482,1388,Andesite / Basaltic Andesite,Subduction zone / Continental crust (>25 km),Holocene
273082,Natib,Philippines,Stratovolcano,Evidence Uncertain,Unknown,Philippines and SE Asia,Luzon,14.72,120.4,1253,Andesite / Basaltic Andesite,Subduction zone / Continental crust (>25 km),Holocene
273083,Pinatubo,Philippines,Stratovolcano,Eruption Observed,1993 CE,Philippines and SE Asia,Luzon,15.13,120.35,1486,Dacite,Subduction zone / Continental crust (>25 km),Holocene
273084,Arayat,Philippines,Stratovolcano,Evidence Uncertain,Unknown,Philippines and SE Asia,Luzon,15.2,120.742,1026,Basalt / Picro-Basalt,Subduction zone / Continental crust (>25 km),Holocene
273087,Patoc,Philippines,Stratovolcano,Unrest / Holocene,Unknown,Philippines and SE Asia,Luzon,17.147,120.98,1865,Andesite / Basaltic Andesite,Subduction zone / Continental crust (>25 km),Holocene
273088,Ambalatungan Group,Philippines,Compound,Unrest / Holocene,Unknown,Philippines and SE Asia,Luzon,17.32,121.1,2329,Dacite,Subduction zone / Continental crust (>25 km),Holocene
273090,Cagua,Philippines,Stratovolcano,Eruption Observed,1860 CE,Philippines and SE Asia,Luzon,18.222,122.123,1133,Andesite / Basaltic Andesite,Subduction zone / Continental crust (>25 km),Holocene
274010,Camiguin de Babuyanes,Philippines,Stratovolcano,Eruption Observed,1857 CE,Philippines and SE Asia,North of Luzon,18.83,121.86,712,Andesite / Basaltic Andesite,Subduction zone / Crustal thickness unknown,Holocene
274020,Didicas,Philippines,Compound,Eruption Observed,1978 CE,Philippines and SE Asia,North of Luzon,19.077,122.202,228,Andesite / Basaltic Andesite,Subduction zone / Crustal thickness unknown,Holocene
274030,Babuyan Claro,Philippines,Stratovolcano(es),Eruption Observed,1924 CE,Philippines and SE Asia,North of Luzon,19.523,121.94,1080,Andesite / Basaltic Andesite,Subduction zone / Crustal thickness unknown,Holocene
274050,Unnamed,Philippines,Submarine,Eruption Observed,1854 CE,Philippines and SE Asia,North of Luzon,20.33,121.75,-24,No Data (checked),Subduction zone / Crustal thickness unknown,Holocene
274060,Iraya,Philippines,Stratovolcano,Eruption Observed,1454 CE,Philippines and SE Asia,North of Luzon,20.469,122.01,1009,Andesite / Basaltic Andesite,Subduction zone / Crustal thickness unknown,Holocene
275001,Hainan Volcanic Field,China,Pyroclastic cone(s),Eruption Observed,1933 CE,Philippines and SE Asia,Southeast Asia,19.905,110.229,196,Basalt / Picro-Basalt,Intraplate / Continental crust (>25 km),Holocene
275020,Ly Son Group,Vietnam,Volcanic field,Evidence Credible,Unknown,Philippines and SE Asia,Southeast Asia,15.38,109.12,157,Basalt / Picro-Basalt,Intraplate / Continental crust (>25 km),Holocene
